loggingTime,loggingSample,locationTimestamp_since1970,locationLatitude,locationLongitude,locationAltitude,locationSpeed,locationCourse,locationVerticalAccuracy,locationHorizontalAccuracy,locationFloor,locationHeadingTimestamp_since1970,locationHeadingX,locationHeadingY,locationHeadingZ,locationTrueHeading,locationMagneticHeading,locationHeadingAccuracy,accelerometerTimestamp_sinceReboot,accelerometerAccelerationX,accelerometerAccelerationY,accelerometerAccelerationZ,gyroTimestamp_sinceReboot,gyroRotationX,gyroRotationY,gyroRotationZ,magnetometerTimestamp_sinceReboot,magnetometerX,magnetometerY,magnetometerZ,motionTimestamp_sinceReboot,motionYaw,motionRoll,motionPitch,motionRotationRateX,motionRotationRateY,motionRotationRateZ,motionUserAccelerationX,motionUserAccelerationY,motionUserAccelerationZ,motionAttitudeReferenceFrame,motionQuaternionX,motionQuaternionY,motionQuaternionZ,motionQuaternionW,motionGravityX,motionGravityY,motionGravityZ,motionMagneticFieldX,motionMagneticFieldY,motionMagneticFieldZ,motionHeading,motionMagneticFieldCalibrationAccuracy,activityTimestamp_sinceReboot,activity,activityActivityConfidence,activityActivityStartDate,pedometerStartDate,pedometerNumberofSteps,pedometerAverageActivePace,pedometerCurrentPace,pedometerCurrentCadence,pedometerDistance,pedometerFloorAscended,pedometerFloorDescended,pedometerEndDate,altimeterTimestamp_sinceReboot,altimeterReset,altimeterRelativeAltitude,altimeterPressure,IP_Timestamp_since1970,IP_en0,IP_pdp_ip0,deviceID,deviceOrientationTimeStamp_since1970,deviceOrientation,batteryTimeStamp_since1970,batteryState,batteryLevel,avAudioRecorder_Timestamp_since1970,avAudioRecorderPeakPower,avAudioRecorderAveragePower,label
1617672463.101898,1,0,0,0,0,0,0,0,0,0,1617672463.09205,-17.45454406738281,-2.929500579833984,-33.20336151123047,36.15226364135742,43.18183517456055,16.94458198547363,1046665.561817042,0.0585174560546875,-0.110107421875,-1.0203857421875,1046665.530686042,0.1185932233929634,0.09199091047048569,-0.1207178980112076,1046665.531394042,-6.158905029296875,32.14437866210938,-104.4805908203125,1046665.528196042,-1.493778941407836,0.02760165394083105,0.06593099209322367,0.1538114547729492,0.08793607354164124,-0.1225069016218185,0.004673222079873085,-0.02759210020303726,0.007472336292266846,2,0.03355391209844257,-0.01226793397960294,-0.6785919858209437,0.7336460963063581,0.02753818780183792,-0.06588323414325714,-0.9974472522735596,-17.6086597442627,-2.524406433105469,-33.35166931152344,-1,2,1046665.528912042,1,2,1617672463.062319,1617670944.349944,97,1.562887,0,0,65.01641,0,0,1617672335.235306,1046662.835482,0,-1.469116,98.15584,0,0,0,0,0,1,1617672463.093537,1,0.14,1617672463.064248,-15.07143,-27.9513,0
1617672463.119713,2,0,0,0,0,0,0,0,0,0,1617672463.110085,-17.40801620483398,-2.899969100952148,-33.20341491699219,36.03211975097656,43.06169128417969,16.94462966918945,1046665.595438042,0.016571044921875,-0.0554351806640625,-0.88385009765625,1046665.564307042,-0.3181998133659363,-0.2470667809247971,0.03463228046894073,1046665.591386042,-6.065902709960938,31.97946166992188,-104.4214019775391,1046665.528196042,-1.493778941407836,0.02760165394083105,0.06593099209322367,0.1538114547729492,0.08793607354164124,-0.1225069016218185,0.004673222079873085,-0.02759210020303726,0.007472336292266846,2,0.03355391209844257,-0.01226793397960294,-0.6785919858209437,0.7336460963063581,0.02753818780183792,-0.06588323414325714,-0.9974472522735596,-17.6086597442627,-2.524406433105469,-33.35166931152344,-1,2,1046665.528912042,1,2,1617672463.062319,1617670944.349944,97,1.562887,0,0,65.01641,0,0,1617672335.235306,1046662.835482,0,-1.469116,98.15584,0,0,0,0,0,1,1617672463.093537,1,0.14,1617672463.115881,-15.07143,-29.01451,0
1617672463.159528,3,0,0,0,0,0,0,0,0,0,1617672463.14994,-17.4874153137207,-2.357772827148438,-33.16587066650391,35.83332824707031,42.86289978027344,16.94472503662109,1046665.629061042,0.0322418212890625,-0.044036865234375,-0.9430084228515625,1046665.597930042,0.0955483615398407,0.4485777914524078,0.09852177649736404,1046665.591386042,-6.065902709960938,31.97946166992188,-104.4214019775391,1046665.587968042,-1.492847105332247,0.02574597202678492,0.05509850631741624,-0.0722615122795105,0.2351703196763992,0.1383254677057266,-0.008278416469693184,0.001512285321950912,0.1109293103218079,2,0.02895770383185593,-0.009256012098869013,-0.678443348809791,0.7340235379373428,0.02570406161248684,-0.05507063120603561,-0.9981515407562256,-17.47635269165039,-2.76860237121582,-33.24188232421875,-1,2,1046665.528912042,1,2,1617672463.062319,1617670944.349944,97,1.562887,0,0,65.01641,0,0,1617672335.235306,1046662.835482,0,-1.469116,98.15584,0,0,0,0,0,1,1617672463.093537,1,0.14,1617672463.129985,-15.07143,-29.01451,0
1617672463.189867,4,0,0,0,0,0,0,0,0,0,1617672463.169862,-17.0833625793457,-2.617591857910156,-33.39495849609375,35.86050796508789,42.89007949829102,16.94477272033691,1046665.662682042,0.0574951171875,-0.0794677734375,-1.027816772460938,1046665.631551042,0.6681255698204041,0.763245165348053,0.0113173695281148,1046665.651381042,-5.279495239257812,31.82827758789062,-104.6210632324219,1046665.647740042,-1.490968066061771,0.06231978398350554,0.07994672650314057,0.7952274680137634,0.7484621405601501,-0.03726346045732498,-0.01541904732584953,0.006527848541736603,-0.01684778928756714,2,0.05046504791141723,-0.004221610032414298,-0.676541850305064,0.7346609394703307,0.06208052858710289,-0.0798615887761116,-0.9948709011077881,-16.82136535644531,-2.796390533447266,-33.43923187255859,-1,2,1046665.528912042,1,2,1617672463.062319,1617670944.349944,97,1.562887,0,0,65.01641,0,0,1617672335.235306,1046662.835482,0,-1.469116,98.15584,0,0,0,0,0,1,1617672463.093537,1,0.14,1617672463.163139,-15.07143,-29.98493,0
1617672463.22389,5,0,0,0,0,0,0,0,0,0,1617672463.209779,-16.08432769775391,-3.551385879516602,-34.24166870117188,36.0971794128418,43.12675094604492,16.94486808776855,1046665.696304042,0.1079864501953125,-0.0999755859375,-1.093505859375,1046665.665172042,0.7157876491546631,0.6089019775390625,-0.06835748255252838,1046665.651381042,-5.279495239257812,31.82827758789062,-104.6210632324219,1046665.647740042,-1.490968066061771,0.06231978398350554,0.07994672650314057,0.7952274680137634,0.7484621405601501,-0.03726346045732498,-0.01541904732584953,0.006527848541736603,-0.01684778928756714,2,0.05046504791141723,-0.004221610032414298,-0.676541850305064,0.7346609394703307,0.06208052858710289,-0.0798615887761116,-0.9948709011077881,-16.82136535644531,-2.796390533447266,-33.43923187255859,-1,2,1046665.528912042,1,2,1617672463.062319,1617670944.349944,97,1.562887,0,0,65.01641,0,0,1617672335.235306,1046662.835482,0,-1.469116,98.15584,0,0,0,0,0,1,1617672463.093537,1,0.14,1617672463.197351,-15.07143,-28.45499,0
1617672463.259585,6,0,0,0,0,0,0,0,0,0,1617672463.250189,-15.61789321899414,-4.213752746582031,-34.50144958496094,36.19436264038086,43.22393417358398,16.94496154785156,1046665.729927042,0.0772705078125,-0.0873565673828125,-1.02545166015625,1046665.698796042,0.01966078579425812,-0.05730350315570831,-0.04936834797263145,1046665.711369042,-4.162582397460938,30.49847412109375,-105.667724609375,1046665.707513042,-1.496099952571578,0.08343263504706074,0.1054633567099061,-0.1862833201885223,-0.2337089627981186,-0.04241006076335907,0.01952899247407913,0.009885266423225403,-0.07694739103317261,2,0.06692990089006814,-0.00529344196368018,-0.6770629521449307,0.7328561238909399,0.08287285268306732,-0.1052679643034935,-0.9909847378730774,-15.64559745788574,-4.157966613769531,-34.51203155517578,-1,2,1046665.528912042,1,2,1617672463.062319,1617670944.349944,97,1.562887,0,0,65.01641,0,0,1617672335.235306,1046662.835482,0,-1.469116,98.15584,0,0,0,0,0,1,1617672463.093537,1,0.14,1617672463.230558,-10.85564,-28.45482,0
1617672463.289243,7,0,0,0,0,0,0,0,0,0,1617672463.269638,-15.63143539428711,-4.26386833190918,-34.41908264160156,36.2346076965332,43.26417922973633,16.94500923156738,1046665.763548042,0.0430145263671875,-0.0755157470703125,-0.965789794921875,1046665.732417042,-0.5372296571731567,-0.4433103203773499,-0.07749266177415848,1046665.711369042,-4.162582397460938,30.49847412109375,-105.667724609375,1046665.707513042,-1.496099952571578,0.08343263504706074,0.1054633567099061,-0.1862833201885223,-0.2337089627981186,-0.04241006076335907,0.01952899247407913,0.009885266423225403,-0.07694739103317261,2,0.06692990089006814,-0.00529344196368018,-0.6770629521449307,0.7328561238909399,0.08287285268306732,-0.1052679643034935,-0.9909847378730774,-15.64559745788574,-4.157966613769531,-34.51203155517578,-1,2,1046665.528912042,1,2,1617672463.062319,1617670944.349944,97,1.562887,0,0,65.01641,0,0,1617672335.235306,1046662.835482,0,-1.469116,98.15584,0,0,0,0,0,1,1617672463.093537,1,0.14,1617672463.272021,-10.85564,-29.68397,0
1617672463.333822,8,0,0,0,0,0,0,0,0,0,1617672463.329426,-16.50828742980957,-3.03034782409668,-34.09261322021484,36.52422332763672,43.55379486083984,16.94515419006348,1046665.797171042,0.0436859130859375,-0.069000244140625,-0.95355224609375,1046665.766038042,-0.4928144812583923,-0.2574568390846252,-0.1134820878505707,1046665.771359042,-4.685211181640625,31.08250427246094,-105.1595001220703,1046665.767285042,-1.498742134577905,0.06102168153778476,0.07551219840892001,-0.4878837168216705,-0.2463183552026749,-0.1109551936388016,-0.02029784023761749,0.006836935877799988,0.04213887453079224,2,0.0483877625250581,-0.003382428059524288,-0.6795331279395169,0.7320395531030709,0.06081003323197365,-0.07544045895338058,-0.9952943921089172,-16.08897399902344,-3.708194732666016,-34.05610656738281,-1,2,1046665.528912042,1,2,1617672463.062319,1617670944.349944,97,1.562887,0,0,65.01641,0,0,1617672335.235306,1046662.835482,0,-1.469116,98.15584,0,0,0,0,0,1,1617672463.093537,1,0.14,1617672463.297374,-10.85564,-30.09183,0
1617672463.358912,9,0,0,0,0,0,0,0,0,0,1617672463.349479,-16.49750900268555,-3.056087493896484,-34.05912780761719,36.63143157958984,43.66100311279297,16.9452018737793,1046665.830792042,0.0716705322265625,-0.090728759765625,-1.025039672851562,1046665.799661042,0.007600395474582911,0.1256828308105469,-0.1099832281470299,1046665.831345042,-4.989486694335938,31.55560302734375,-105.0913238525391,1046665.767285042,-1.498742134577905,0.06102168153778476,0.07551219840892001,-0.4878837168216705,-0.2463183552026749,-0.1109551936388016,-0.02029784023761749,0.006836935877799988,0.04213887453079224,2,0.0483877625250581,-0.003382428059524288,-0.6795331279395169,0.7320395531030709,0.06081003323197365,-0.07544045895338058,-0.9952943921089172,-16.08897399902344,-3.708194732666016,-34.05610656738281,-1,2,1046665.528912042,1,2,1617672463.062319,1617670944.349944,97,1.562887,0,0,65.01641,0,0,1617672335.235306,1046662.835482,0,-1.469116,98.15584,0,0,0,0,0,1,1617672463.093537,1,0.14,1617672463.346679,-10.85564,-25.89086,0
1617672463.391485,10,0,0,0,0,0,0,0,0,0,1617672463.389113,-16.31528091430664,-3.28468132019043,-34.03582000732422,36.71279144287109,43.74236297607422,16.94529724121094,1046665.864414042,0.07879638671875,-0.0822906494140625,-1.032821655273438,1046665.833282042,0.0950452908873558,0.115882396697998,-0.0420537106692791,1046665.831345042,-4.989486694335938,31.55560302734375,-105.0913238525391,1046665.827057042,-1.504350706567368,0.06386935426160037,0.0691027007558644,0.09472151845693588,0.1407805979251862,-0.05119031667709351,0.01152181625366211,-0.0207502543926239,-0.0390276312828064,2,0.04701362913008247,-0.000288787516668991,-0.6816675017099263,0.7301500084374548,0.06367360800504684,-0.0690477192401886,-0.9955792427062988,-16.4471549987793,-3.11625862121582,-33.96468353271484,-1,2,1046665.528912042,1,2,1617672463.062319,1617670944.349944,97,1.562887,0,0,65.01641,0,0,1617672335.235306,1046662.835482,0,-1.469116,98.15584,0,0,0,0,0,1,1617672463.093537,1,0.14,1617672463.36468,-10.85564,-25.89086,0
1617672463.428926,11,0,0,0,0,0,0,0,0,0,1617672463.409027,-16.38771057128906,-3.09846305847168,-34.08709716796875,36.72289276123047,43.75246429443359,16.94534492492676,1046665.898037042,0.0667877197265625,-0.080108642578125,-0.99920654296875,1046665.866906042,-0.01182390283793211,-0.1013934686779976,-0.01334723085165024,1046665.891333042,-4.93853759765625,31.49497985839844,-105.1140289306641,1046665.886830042,-1.505656699627213,0.06176347377480725,0.06996887367276151,0.009166383184492588,-0.09314529597759247,-0.00197569583542645,0.006023358553647995,-0.00973907858133316,-0.004165768623352051,2,0.04661053712129185,-0.001383945809818109,-0.6821732259540513,0.729702121566552,0.06157318502664566,-0.06991180032491684,-0.9956510663032532,-16.37945747375488,-3.171688079833984,-33.98888397216797,-1,2,1046665.528912042,1,2,1617672463.062319,1617670944.349944,97,1.562887,0,0,65.01641,0,0,1617672335.235306,1046662.835482,0,-1.469116,98.15584,0,0,0,0,0,1,1617672463.093537,1,0.14,1617672463.401555,-10.85564,-26.66263,0
1617672463.463197,12,0,0,0,0,0,0,0,0,0,1617672463.449147,-16.51393508911133,-3.101110458374023,-34.03279876708984,36.71025848388672,43.73983001708984,16.94539642333984,1046665.931658042,0.061798095703125,-0.074676513671875,-0.999755859375,1046665.900527042,0.0347830131649971,-0.06328549236059189,0.006724481470882893,1046665.891333042,-4.93853759765625,31.49497985839844,-105.1140289306641,1046665.886830042,-1.505656699627213,0.06176347377480725,0.06996887367276151,0.009166383184492588,-0.09314529597759247,-0.00197569583542645,0.006023358553647995,-0.00973907858133316,-0.004165768623352051,2,0.04661053712129185,-0.001383945809818109,-0.6821732259540513,0.729702121566552,0.06157318502664566,-0.06991180032491684,-0.9956510663032532,-16.37945747375488,-3.171688079833984,-33.98888397216797,-1,2,1046665.528912042,1,2,1617672463.062319,1617670944.349944,97,1.562887,0,0,65.01641,0,0,1617672335.235306,1046662.835482,0,-1.469116,98.15584,0,0,0,0,0,1,1617672463.093537,1,0.14,1617672463.463178,-10.85564,-27.11001,0
1617672463.488815,13,0,0,0,0,0,0,0,0,0,1617672463.468855,-16.46832275390625,-3.285177230834961,-34.05242156982422,36.7041015625,43.73367309570312,16.94540596008301,1046665.965279042,0.0570831298828125,-0.08465576171875,-1.001846313476562,1046665.934148042,0.05802495405077934,-0.02154231071472168,0.006483465433120728,1046665.951324042,-5.030776977539062,31.43043518066406,-105.0115814208984,1046665.946602042,-1.505279388546197,0.05958344814358528,0.07256753276883433,0.05533753335475922,-0.00817293394356966,0.01106130331754684,-0.001743659377098083,-0.009222216904163361,-0.002723276615142822,2,0.04681373650318045,-0.003058900058073858,-0.68202608847112,0.7298216793479047,0.05939147621393204,-0.07250385731458664,-0.9955982565879822,-16.46838760375977,-3.271003723144531,-33.90572357177734,-1,2,1046665.528912042,1,2,1617672463.062319,1617670944.349944,97,1.562887,0,0,65.01641,0,0,1617672335.235306,1046662.835482,0,-1.469116,98.15584,0,0,0,0,0,1,1617672463.093537,1,0.14,1617672463.463178,-10.85564,-27.11001,0
1617672463.528042,14,0,0,0,0,0,0,0,0,0,1617672463.508777,-16.45893096923828,-3.365329742431641,-34.00080871582031,36.67044830322266,43.70001983642578,16.94543075561523,1046665.998902042,0.0614471435546875,-0.0770263671875,-1.01519775390625,1046665.967771042,0.07606147974729538,0.01029125321656466,0.02039209008216858,1046665.951324042,-5.030776977539062,31.43043518066406,-105.0115814208984,1046665.946602042,-1.505279388546197,0.05958344814358528,0.07256753276883433,0.05533753335475922,-0.00817293394356966,0.01106130331754684,-0.001743659377098083,-0.009222216904163361,-0.002723276615142822,2,0.04681373650318045,-0.003058900058073858,-0.68202608847112,0.7298216793479047,0.05939147621393204,-0.07250385731458664,-0.9955982565879822,-16.46838760375977,-3.271003723144531,-33.90572357177734,-1,2,1046665.528912042,1,2,1617672463.062319,1617670944.349944,97,1.562887,0,0,65.01641,0,0,1617672335.235306,1046662.835482,0,-1.469116,98.15584,0,0,0,0,0,1,1617672463.093537,1,0.14,1617672463.497379,-10.85564,-26.60126,0
1617672463.558395,15,0,0,0,0,0,0,0,0,0,1617672463.548988,-16.51411819458008,-3.556222915649414,-33.93470764160156,36.61574172973633,43.64531326293945,16.94544792175293,1046666.032524042,0.055023193359375,-0.0747833251953125,-0.9958648681640625,1046666.001392042,0.07322840392589569,-0.06551056355237961,0.02564038150012493,1046666.011305042,-5.085845947265625,31.17971801757812,-105.1224670410156,1046666.006375042,-1.504059196540555,0.05839246158001483,0.07673749929164173,0.05157747864723206,-0.08008123934268951,0.02607092075049877,-0.0009211897850036621,0.0003377422690391541,-0.008395850658416748,2,0.04792912003827592,-0.004889548585206356,-0.6815109105954282,0.7302204452117025,0.05818754062056541,-0.07666220515966415,-0.9953578114509583,-16.49679183959961,-3.494838714599609,-34.00436401367188,-1,2,1046665.528912042,1,2,1617672463.062319,1617670944.349944,97,1.562887,0,0,65.01641,0,0,1617672335.235306,1046662.835482,0,-1.469116,98.15584,0,0,0,0,0,1,1617672463.093537,1,0.14,1617672463.530847,-10.85564,-27.20329,0
1617672463.597811,16,0,0,0,0,0,0,0,0,0,1617672463.588265,-16.6577205657959,-3.500732421875,-33.90574645996094,36.58024597167969,43.60981750488281,16.94545936584473,1046666.066147042,0.0484771728515625,-0.0806121826171875,-0.9998016357421875,1046666.035014042,-0.03471270576119423,-0.1171639040112495,0.005450957920402288,1046666.071292042,-5.27508544921875,31.21150207519531,-104.8699035644531,1046666.006375042,-1.504059196540555,0.05839246158001483,0.07673749929164173,0.05157747864723206,-0.08008123934268951,0.02607092075049877,-0.0009211897850036621,0.0003377422690391541,-0.008395850658416748,2,0.04792912003827592,-0.004889548585206356,-0.6815109105954282,0.7302204452117025,0.05818754062056541,-0.07666220515966415,-0.9953578114509583,-16.49679183959961,-3.494838714599609,-34.00436401367188,-1,2,1046665.528912042,1,2,1617672463.062319,1617670944.349944,97,1.562887,0,0,65.01641,0,0,1617672335.235306,1046662.835482,0,-1.469116,98.15584,0,0,0,0,0,1,1617672463.093537,1,0.14,1617672463.597529,-10.85564,-27.5606,0
1617672463.633244,17,0,0,0,0,0,0,0,0,0,1617672463.628266,-16.7542896270752,-3.319351196289062,-33.77368927001953,36.53055191040039,43.56012344360352,16.94546699523926,1046666.099768042,0.046539306640625,-0.0755462646484375,-1.002914428710938,1046666.068637042,-0.0321267768740654,-0.07519754767417908,0.02063523791730404,1046666.071292042,-5.27508544921875,31.21150207519531,-104.8699035644531,1046666.066147042,-1.503023387010659,0.05263185687127626,0.07531254160883787,-0.04942461103200912,-0.0804034098982811,0.02305533550679684,-0.006163161247968674,-0.0006405860185623169,-0.006595790386199951,2,0.0454500475536762,-0.006482533539281608,-0.681300035589701,0.7305632173989381,0.05245843529701233,-0.07524136453866959,-0.9957845211029053,-16.69706726074219,-3.488975524902344,-33.76262664794922,-1,2,1046665.528912042,1,2,1617672463.062319,1617670944.349944,97,1.562887,0,0,65.01641,0,0,1617672335.235306,1046662.835482,0,-1.469116,98.15584,0,0,0,0,0,1,1617672463.093537,1,0.14,1617672463.597529,-10.85564,-27.5606,0
1617672463.65774,18,0,0,0,0,0,0,0,0,0,1617672463.648165,-16.83326721191406,-3.244588851928711,-33.76433563232422,36.50752639770508,43.5370979309082,16.94547271728516,1046666.133389042,0.0421142578125,-0.069091796875,-1.003494262695312,1046666.102258042,0.06195258349180222,-0.03788106888532639,0.02556634694337845,1046666.131281042,-5.411270141601562,31.36094665527344,-104.8816070556641,1046666.066147042,-1.503023387010659,0.05263185687127626,0.07531254160883787,-0.04942461103200912,-0.0804034098982811,0.02305533550679684,-0.006163161247968674,-0.0006405860185623169,-0.006595790386199951,2,0.0454500475536762,-0.006482533539281608,-0.681300035589701,0.7305632173989381,0.05245843529701233,-0.07524136453866959,-0.9957845211029053,-16.69706726074219,-3.488975524902344,-33.76262664794922,-1,2,1046665.528912042,1,2,1617672463.062319,1617670944.349944,97,1.562887,0,0,65.01641,0,0,1617672335.235306,1046662.835482,0,-1.469116,98.15584,0,0,0,0,0,1,1617672463.093537,1,0.14,1617672463.646102,-10.85564,-28.4274,0
1617672463.701375,19,0,0,0,0,0,0,0,0,0,1617672463.688012,-16.94005012512207,-3.430368423461914,-33.61862182617188,36.51166534423828,43.54123687744141,16.94548034667969,1046666.167013042,0.0401458740234375,-0.0694580078125,-1.001678466796875,1046666.169503042,0.06120822951197624,-0.04788683354854584,-0.03358006477355957,1046666.131281042,-5.411270141601562,31.36094665527344,-104.8816070556641,1046666.125919042,-1.501828348990368,0.04918124860566517,0.07765779581222822,0.1368587762117386,-0.05934003368020058,0.01530164666473866,-0.007234580814838409,0.008320115506649017,-0.006798088550567627,2,0.04513477821906953,-0.008516581236979614,-0.6808891524373757,0.7309448590814205,0.04901326075196266,-0.07757976651191711,-0.9957806468009949,-16.84445571899414,-3.309164047241211,-33.73075103759766,-1,2,1046665.528912042,1,2,1617672463.062319,1617670944.349944,97,1.562887,0,0,65.01641,0,0,1617672335.235306,1046662.835482,0,-1.469116,98.15584,0,0,0,0,0,1,1617672463.093537,1,0.14,1617672463.701327,-10.85564,-29.39095,0
1617672463.727906,20,0,0,0,0,0,0,0,0,0,1617672463.707821,-16.91867065429688,-3.507158279418945,-33.72059631347656,36.54812240600586,43.57769393920898,16.94548606872559,1046666.200634042,0.0460968017578125,-0.087249755859375,-1.013320922851562,1046666.169503042,0.06120822951197624,-0.04788683354854584,-0.03358006477355957,1046666.191270042,-5.547012329101562,31.07847595214844,-104.7748107910156,1046666.185692042,-1.502735082448945,0.04670011886674494,0.08200082583777489,-0.009360709227621555,-0.052493616938591,-0.02912568673491478,-0.0007955841720104218,-0.006317362189292908,-0.01061129570007324,2,0.04586955019736891,-0.01092569169775477,-0.6811797762639444,0.7305962075647737,0.04652628302574158,-0.08190895617008209,-0.9955532550811768,-16.96586990356445,-3.585969924926758,-33.64190673828125,-1,2,1046665.528912042,1,2,1617672463.062319,1617670944.349944,97,1.562887,0,0,65.01641,0,0,1617672335.235306,1046662.835482,0,-1.469116,98.15584,0,0,0,0,0,1,1617672463.093537,1,0.14,1617672463.701327,-10.85564,-29.39095,0
1617672463.763188,21,0,0,0,0,0,0,0,0,0,1617672463.747808,-17.10201644897461,-3.497690200805664,-33.65907287597656,36.59805297851562,43.62762451171875,16.94549369812012,1046666.234255042,0.0342254638671875,-0.0854949951171875,-0.96630859375,1046666.203124042,-0.03858094662427902,-0.1097786948084831,-0.02296443842351437,1046666.191270042,-5.547012329101562,31.07847595214844,-104.7748107910156,1046666.185692042,-1.502735082448945,0.04670011886674494,0.08200082583777489,-0.009360709227621555,-0.052493616938591,-0.02912568673491478,-0.0007955841720104218,-0.006317362189292908,-0.01061129570007324,2,0.04586955019736891,-0.01092569169775477,-0.6811797762639444,0.7305962075647737,0.04652628302574158,-0.08190895617008209,-0.9955532550811768,-16.96586990356445,-3.585969924926758,-33.64190673828125,-1,2,1046665.528912042,1,2,1617672463.062319,1617670944.349944,97,1.562887,0,0,65.01641,0,0,1617672335.235306,1046663.784587,0,-1.474426,98.15591,0,0,0,0,0,1,1617672463.093537,1,0.14,1617672463.763166,-10.85564,-30.13514,0
1617672463.797446,22,0,0,0,0,0,0,0,0,0,1617672463.78776,-17.13894653320312,-3.50880241394043,-33.32186126708984,36.63667678833008,43.6662483215332,16.94550704956055,1046666.267878042,0.042724609375,-0.088348388671875,-0.9980621337890625,1046666.236747042,-0.04697230085730553,-0.04683195427060127,-0.02772909961640835,1046666.251252042,-5.711395263671875,31.19720458984375,-104.5168304443359,1046666.245464042,-1.504036922041088,0.04121227788365765,0.07823428658427292,-0.05831475555896759,0.005703451577574015,-0.01918393932282925,-0.0044686459004879,-0.01179605722427368,0.02943521738052368,2,0.0426189357611152,-0.0116726681287409,-0.6818582967793619,0.7301483698694458,0.04107458889484406,-0.07815450429916382,-0.9960947632789612,-17.13737487792969,-3.500246047973633,-33.39673614501953,-1,2,1046665.528912042,1,2,1617672463.062319,1617670944.349944,97,1.562887,0,0,65.01641,0,0,1617672335.235306,1046663.784587,0,-1.474426,98.15591,0,0,0,0,0,1,1617672463.093537,1,0.14,1617672463.797371,-10.85564,-30.34431,0
1617672463.826973,23,0,0,0,0,0,0,0,0,0,1617672463.807655,-17.14206123352051,-3.336828231811523,-33.50529479980469,36.62371063232422,43.65328216552734,16.94551277160645,1046666.301499042,0.047271728515625,-0.06268310546875,-1.025054931640625,1046666.270368042,-0.008284028619527817,0.04114770144224167,0.007977232336997986,1046666.251252042,-5.711395263671875,31.19720458984375,-104.5168304443359,1046666.245464042,-1.504036922041088,0.04121227788365765,0.07823428658427292,-0.05831475555896759,0.005703451577574015,-0.01918393932282925,-0.0044686459004879,-0.01179605722427368,0.02943521738052368,2,0.0426189357611152,-0.0116726681287409,-0.6818582967793619,0.7301483698694458,0.04107458889484406,-0.07815450429916382,-0.9960947632789612,-17.13737487792969,-3.500246047973633,-33.39673614501953,-1,2,1046665.528912042,1,2,1617672463.062319,1617670944.349944,97,1.562887,0,0,65.01641,0,0,1617672335.235306,1046663.784587,0,-1.474426,98.15591,0,0,0,0,0,1,1617672463.093537,1,0.14,1617672463.797371,-10.85564,-30.34431,0
1617672463.873101,24,0,0,0,0,0,0,0,0,0,1617672463.867264,-17.1512508392334,-3.278202056884766,-33.56089782714844,36.63908004760742,43.66865158081055,16.94552993774414,1046666.335121375,0.0457763671875,-0.0805816650390625,-0.9950408935546875,1046666.303989042,0.05479666963219643,-0.01616512052714825,-0.003784085623919964,1046666.311234042,-5.654449462890625,31.4075927734375,-104.6859436035156,1046666.305236042,-1.503643108809156,0.0426299273504005,0.07801179821816134,0.04622547328472137,-0.02501513250172138,-0.003747642040252686,0.006279796361923218,0.0181640237569809,-0.02300530672073364,2,0.04302332230905488,-0.01107065803883131,-0.6816888241321032,0.7302923542716251,0.04248740151524544,-0.0779326930642128,-0.9960528612136841,-17.11445617675781,-3.285484313964844,-33.53739929199219,-1,2,1046665.528912042,1,2,1617672463.062319,1617670944.349944,97,1.562887,0,0,65.01641,0,0,1617672335.235306,1046663.784587,0,-1.474426,98.15591,0,0,0,0,0,1,1617672463.093537,1,0.14,1617672463.872937,-10.85564,-30.91892,0
1617672463.897355,25,0,0,0,0,0,0,0,0,0,1617672463.887132,-17.17827606201172,-3.330886840820312,-33.58067321777344,36.6360969543457,43.66566848754883,16.94553565979004,1046666.368743375,0.0449676513671875,-0.0908660888671875,-1.00408935546875,1046666.337611375,0.1012824103236198,0.004789428785443306,-0.008168447762727737,1046666.371218375,-5.679763793945312,31.31285095214844,-104.6354522705078,1046666.305236042,-1.503643108809156,0.0426299273504005,0.07801179821816134,0.04622547328472137,-0.02501513250172138,-0.003747642040252686,0.006279796361923218,0.0181640237569809,-0.02300530672073364,2,0.04302332230905488,-0.01107065803883131,-0.6816888241321032,0.7302923542716251,0.04248740151524544,-0.0779326930642128,-0.9960528612136841,-17.11445617675781,-3.285484313964844,-33.53739929199219,-1,2,1046665.528912042,1,2,1617672463.062319,1617670944.349944,97,1.562887,0,0,65.01641,0,0,1617672335.235306,1046663.784587,0,-1.474426,98.15591,0,0,0,0,0,1,1617672463.093537,1,0.14,1617672463.897279,-10.85564,-30.9172,0
1617672463.932786,26,0,0,0,0,0,0,0,0,0,1617672463.927019,-17.08890533447266,-3.50050163269043,-33.54790496826172,36.61993789672852,43.64950942993164,16.9455451965332,1046666.402364375,0.0465850830078125,-0.090240478515625,-1.00860595703125,1046666.371233375,0.04035061970353127,-0.04502180218696594,0.00686190091073513,1046666.371218375,-5.679763793945312,31.31285095214844,-104.6354522705078,1046666.365008375,-1.504084239408785,0.04124932420639744,0.08292436431752716,0.04793640598654747,-0.04848735779523849,0.01008423138409853,0.002361219376325607,-0.00690758228302002,-0.00361257791519165,2,0.04434077656006215,-0.01326190442920382,-0.6817749801851571,0.7300964846441302,0.04109592363238335,-0.08282935619354248,-0.9957160353660583,-17.13472557067871,-3.368131637573242,-33.50238037109375,-1,2,1046665.528912042,1,2,1617672463.062319,1617670944.349944,97,1.562887,0,0,65.01641,0,0,1617672335.235306,1046663.784587,0,-1.474426,98.15591,0,0,0,0,0,1,1617672463.093537,1,0.14,1617672463.897279,-10.85564,-30.9172,0
1617672463.966437,27,0,0,0,0,0,0,0,0,0,1617672463.947295,-17.15910148620605,-3.563106536865234,-33.57582855224609,36.59492492675781,43.62449645996094,16.94555473327637,1046666.435987375,0.0320587158203125,-0.0856475830078125,-0.991973876953125,1046666.404856375,-0.07338207215070724,-0.09581760317087173,0.01435017678886652,1046666.431199375,-5.832046508789062,31.1767578125,-104.5902252197266,1046666.424780375,-1.503262964550955,0.03666918345472386,0.08000317265139426,-0.04434675723314285,-0.125643327832222,0.02935424447059631,-0.003264173865318298,-0.005760245025157928,0.0001291632652282715,2,0.04172021033843702,-0.01391912901675898,-0.6816350387444263,0.7303693328182119,0.03654370456933975,-0.07991785556077957,-0.9961313605308533,-17.23821067810059,-3.531583786010742,-33.46865081787109,-1,2,1046665.528912042,1,2,1617672463.062319,1617670944.349944,97,1.562887,0,0,65.01641,0,0,1617672335.235306,1046663.784587,0,-1.474426,98.15591,0,0,0,0,0,1,1617672463.093537,1,0.14,1617672463.963981,-10.85564,-26.79797,0
1617672464.00194,28,0,0,0,0,0,0,0,0,0,1617672463.986861,-17.23715209960938,-3.469619750976562,-33.46259307861328,36.52839279174805,43.55796432495117,16.9455680847168,1046666.469608375,0.024658203125,-0.081298828125,-0.980010986328125,1046666.438477375,0.01434032339602709,-0.06431960314512253,0.0300495121628046,1046666.431199375,-5.832046508789062,31.1767578125,-104.5902252197266,1046666.424780375,-1.503262964550955,0.03666918345472386,0.08000317265139426,-0.04434675723314285,-0.125643327832222,0.02935424447059631,-0.003264173865318298,-0.005760245025157928,0.0001291632652282715,2,0.04172021033843702,-0.01391912901675898,-0.6816350387444263,0.7303693328182119,0.03654370456933975,-0.07991785556077957,-0.9961313605308533,-17.23821067810059,-3.531583786010742,-33.46865081787109,-1,2,1046665.528912042,1,2,1617672463.062319,1617670944.349944,97,1.562887,0,0,65.01641,0,0,1617672335.235306,1046663.784587,0,-1.474426,98.15591,0,0,0,0,0,1,1617672463.093537,1,0.14,1617672464.00191,-10.85564,-27.41972,0
1617672464.026646,29,0,0,0,0,0,0,0,0,0,1617672464.00664,-17.29746627807617,-3.479948043823242,-33.34951782226562,36.50590515136719,43.53547668457031,16.9455738067627,1046666.503229375,0.03009033203125,-0.079742431640625,-1.006057739257812,1046666.472098375,0.08141150325536728,0.04109736904501915,0.02072711661458015,1046666.491194375,-5.88116455078125,31.26181030273438,-104.3015594482422,1046666.484552375,-1.501752897677944,0.03605140792255217,0.08272434852817367,0.0453687384724617,0.02161555737257004,0.02159865759313107,-0.006898015737533569,-0.0009881407022476196,-0.01067429780960083,2,0.04251337469381033,-0.01504149398269179,-0.6810405831089645,0.7308558081669962,0.03592034056782722,-0.08263003081083298,-0.9959327578544617,-17.31272888183594,-3.447071075439453,-33.19773101806641,-1,2,1046665.528912042,1,2,1617672463.062319,1617670944.349944,97,1.562887,0,0,65.01641,0,0,1617672335.235306,1046663.784587,0,-1.474426,98.15591,0,0,0,0,0,1,1617672463.093537,1,0.14,1617672464.00191,-10.85564,-27.41972,0
1617672464.066125,30,0,0,0,0,0,0,0,0,0,1617672464.046704,-17.29962539672852,-3.478609085083008,-33.31855773925781,36.46195220947266,43.49152374267578,16.94558334350586,1046666.536853375,0.02899169921875,-0.0780792236328125,-0.9975433349609375,1046666.505721375,0.02056359872221947,-0.004374241922050714,0.01948315463960171,1046666.491194375,-5.88116455078125,31.26181030273438,-104.3015594482422,1046666.484552375,-1.501752897677944,0.03605140792255217,0.08272434852817367,0.0453687384724617,0.02161555737257004,0.02159865759313107,-0.006898015737533569,-0.0009881407022476196,-0.01067429780960083,2,0.04251337469381033,-0.01504149398269179,-0.6810405831089645,0.7308558081669962,0.03592034056782722,-0.08263003081083298,-0.9959327578544617,-17.31272888183594,-3.447071075439453,-33.19773101806641,-1,2,1046665.528912042,1,2,1617672463.062319,1617670944.349944,97,1.562887,0,0,65.01641,0,0,1617672335.235306,1046663.784587,0,-1.474426,98.15591,0,0,0,0,0,1,1617672463.093537,1,0.14,1617672464.064758,-10.85564,-28.02319,0
1617672464.096426,31,0,0,0,0,0,0,0,0,0,1617672464.086372,-17.29814147949219,-3.56110954284668,-33.08342742919922,36.43613815307617,43.4657096862793,16.94559288024902,1046666.570474375,0.028411865234375,-0.0813446044921875,-0.9992218017578125,1046666.539343375,0.02606169506907463,0.00971574429422617,0.009855027310550213,1046666.551184375,-5.875213623046875,31.18397521972656,-104.3198394775391,1046666.544325375,-1.50073532170038,0.03562758208072642,0.08364602842858573,0.01499142870306969,-0.008683869615197182,0.009315739385783672,-0.001132607460021973,0.01122185587882996,-0.01436728239059448,2,0.04271327686143514,-0.01548899076524394,-0.6806585759266532,0.7311906027654833,0.03549550846219063,-0.08354852348566055,-0.9958713054656982,-17.3105297088623,-3.503688812255859,-33.20809936523438,-1,2,1046665.528912042,1,2,1617672463.062319,1617670944.349944,97,1.562887,0,0,65.01641,0,0,1617672335.235306,1046663.784587,0,-1.474426,98.15591,1617672464.09485,587422867,1685438189,0,0,1,1617672463.093537,1,0.14,1617672464.096373,-10.85564,-28.56923,0
1617672464.135758,32,0,0,0,0,0,0,0,0,0,1617672464.126226,-17.32453536987305,-3.509115219116211,-33.38955688476562,36.41919708251953,43.44876861572266,16.94560432434082,1046666.604097375,0.02911376953125,-0.08465576171875,-1.01153564453125,1046666.572964375,0.04233627021312714,0.01596991159021854,0.00957086868584156,1046666.611172375,-5.845260620117188,31.07473754882812,-104.446044921875,1046666.544325375,-1.50073532170038,0.03562758208072642,0.08364602842858573,0.01499142870306969,-0.008683869615197182,0.009315739385783672,-0.001132607460021973,0.01122185587882996,-0.01436728239059448,2,0.04271327686143514,-0.01548899076524394,-0.6806585759266532,0.7311906027654833,0.03549550846219063,-0.08354852348566055,-0.9958713054656982,-17.3105297088623,-3.503688812255859,-33.20809936523438,-1,2,1046665.528912042,1,2,1617672463.062319,1617670944.349944,97,1.562887,0,0,65.01641,0,0,1617672335.235306,1046663.784587,0,-1.474426,98.15591,1617672464.09485,587422867,1685438189,0,0,1,1617672463.093537,1,0.14,1617672464.130758,-10.85564,-28.8156,0
1617672464.172693,33,0,0,0,0,0,0,0,0,0,1617672464.166208,-17.26608085632324,-3.623439788818359,-33.31636810302734,36.41906356811523,43.44863510131836,16.94561767578125,1046666.637718375,0.035614013671875,-0.0963134765625,-1.007125854492188,1046666.606587375,0.04934997111558914,0.02375539764761925,-0.0007755124825052917,1046666.611172375,-5.845260620117188,31.07473754882812,-104.446044921875,1046666.604097375,-1.500316040523122,0.03556451110198119,0.08520346063927024,0.03406683728098869,0.02285101264715195,0.00260204984806478,-0.003979556262493134,-0.003019101917743683,-0.0173954963684082,2,0.04326376357669191,-0.01603386799021588,-0.6804741037284802,0.7313180591868016,0.03542802855372429,-0.08510040491819382,-0.9957423210144043,-17.29474639892578,-3.589200973510742,-33.31249237060547,-1,2,1046665.528912042,1,2,1617672463.062319,1617670944.349944,97,1.562887,0,0,65.01641,0,0,1617672335.235306,1046663.784587,0,-1.474426,98.15591,1617672464.09485,587422867,1685438189,0,0,1,1617672463.093537,1,0.14,1617672464.172537,-11.41291,-28.95576,0
1617672464.195684,34,0,0,0,0,0,0,0,0,0,1617672464.185979,-17.27456092834473,-3.695173263549805,-33.36630249023438,36.41203689575195,43.44160842895508,16.94562530517578,1046666.671339375,0.03466796875,-0.0983734130859375,-0.9981231689453125,1046666.640208375,0.0835857093334198,0.01296772994101048,0.001374457380734384,1046666.671164375,-5.814788818359375,30.94424438476562,-104.412353515625,1046666.604097375,-1.500316040523122,0.03556451110198119,0.08520346063927024,0.03406683728098869,0.02285101264715195,0.00260204984806478,-0.003979556262493134,-0.003019101917743683,-0.0173954963684082,2,0.04326376357669191,-0.01603386799021588,-0.6804741037284802,0.7313180591868016,0.03542802855372429,-0.08510040491819382,-0.9957423210144043,-17.29474639892578,-3.589200973510742,-33.31249237060547,-1,2,1046665.528912042,1,2,1617672463.062319,1617670944.349944,97,1.562887,0,0,65.01641,0,0,1617672335.235306,1046663.784587,0,-1.474426,98.15591,1617672464.09485,587422867,1685438189,0,0,1,1617672463.093537,1,0.14,1617672464.172537,-11.41291,-28.95576,0
1617672464.235451,35,0,0,0,0,0,0,0,0,0,1617672464.225824,-17.1537971496582,-3.867172241210938,-33.22898101806641,36.37964630126953,43.40921783447266,16.94564056396484,1046666.704963375,0.0353851318359375,-0.093902587890625,-1.000961303710938,1046666.673831375,0.0531630851328373,0.01995985954999924,0.01215679757297039,1046666.671164375,-5.814788818359375,30.94424438476562,-104.412353515625,1046666.663869375,-1.50015675143122,0.03598586103077556,0.08817106692279028,0.04830522835254669,0.02193113416433334,0.01113112736493349,-0.001277074217796326,-0.01024024933576584,-0.002484738826751709,2,0.04449200374224279,-0.01688757223514223,-0.6803433884228125,0.7313468408699429,0.03583833575248718,-0.08805686980485916,-0.9954705238342285,-17.25872421264648,-3.735509872436523,-33.28176879882812,-1,2,1046665.528912042,1,2,1617672463.062319,1617670944.349944,97,1.562887,0,0,65.01641,0,0,1617672335.235306,1046663.784587,0,-1.474426,98.15591,1617672464.09485,587422867,1685438189,0,0,1,1617672463.093537,1,0.14,1617672464.230617,-13.08475,-29.91178,0
1617672464.265401,36,0,0,0,0,0,0,0,0,0,1617672464.245945,-17.10601806640625,-3.923233032226562,-32.99053955078125,36.36592483520508,43.3954963684082,16.94564628601074,1046666.738584375,0.028656005859375,-0.0880126953125,-0.974365234375,1046666.707453375,0.05609655752778053,-0.01824078895151615,0.01170406024903059,1046666.731143375,-5.646484375,30.72096252441406,-104.1569366455078,1046666.723642375,-1.499395197423627,0.03541637608976189,0.09097358673683927,0.05258353799581528,-0.03628706932067871,0.0009593424038030207,-0.003661483526229858,0.003934085369110107,0.01307779550552368,2,0.04532841677363761,-0.01803350155261876,-0.6800166208419389,0.7315718920346439,0.03526254743337631,-0.0908481553196907,-0.9952402710914612,-17.09035301208496,-3.960151672363281,-32.99210357666016,-1,2,1046665.528912042,1,2,1617672463.062319,1617670944.349944,97,1.562887,0,0,65.01641,0,0,1617672335.235306,1046663.784587,0,-1.474426,98.15591,1617672464.09485,587422867,1685438189,0,0,1,1617672463.093537,1,0.14,1617672464.264267,-13.64203,-26.00877,0
1617672464.305943,37,0,0,0,0,0,0,0,0,0,1617672464.285737,-17.19803237915039,-3.813713073730469,-33.39739990234375,36.37417984008789,43.40375137329102,16.94565963745117,1046666.772205375,0.0310821533203125,-0.105438232421875,-0.988525390625,1046666.741074375,0.05416789650917053,0.007345264777541161,-0.00669278996065259,1046666.731143375,-5.646484375,30.72096252441406,-104.1569366455078,1046666.723642375,-1.499395197423627,0.03541637608976189,0.09097358673683927,0.05258353799581528,-0.03628706932067871,0.0009593424038030207,-0.003661483526229858,0.003934085369110107,0.01307779550552368,2,0.04532841677363761,-0.01803350155261876,-0.6800166208419389,0.7315718920346439,0.03526254743337631,-0.0908481553196907,-0.9952402710914612,-17.09035301208496,-3.960151672363281,-32.99210357666016,-1,2,1046665.528912042,1,2,1617672463.062319,1617670944.349944,97,1.562887,0,0,65.01641,0,0,1617672335.235306,1046663.784587,0,-1.474426,98.15591,1617672464.09485,587422867,1685438189,0,0,1,1617672463.093537,1,0.14,1617672464.30591,-14.75659,-27.04344,0
1617672464.335116,38,0,0,0,0,0,0,0,0,0,1617672464.325631,-17.09163665771484,-3.854278564453125,-33.34635925292969,36.32872772216797,43.35829925537109,16.94567489624023,1046666.805828375,0.036590576171875,-0.091064453125,-1.00811767578125,1046666.774697375,-0.009883789345622063,0.04452778771519661,0.01944027654826641,1046666.791133375,-5.694595336914062,30.80465698242188,-104.4103240966797,1046666.783414375,-1.499166176438518,0.03625991270275261,0.09223632970413626,-0.02850580029189587,0.02176292054355145,0.02445347234606743,0.0008895471692085266,-0.005199700593948364,-0.01372486352920532,2,0.04607847618088941,-0.0181497483403931,-0.6798855940270963,0.7316441644574436,0.03609786927700043,-0.09210560470819473,-0.9950947165489197,-17.14546966552734,-3.848024368286133,-33.28112030029297,-1,2,1046665.528912042,1,2,1617672463.062319,1617670944.349944,97,1.562887,0,0,65.01641,0,0,1617672335.235306,1046663.784587,0,-1.474426,98.15591,1617672464.09485,587422867,1685438189,0,0,1,1617672463.093537,1,0.14,1617672464.32996,-9.400735,-27.64281,0
1617672464.36491,39,0,0,0,0,0,0,0,0,0,1617672464.345519,-17.11725616455078,-3.738649368286133,-33.40880584716797,36.30153656005859,43.33110809326172,16.94568252563477,1046666.839449375,0.0331268310546875,-0.0907745361328125,-1.00341796875,1046666.808318375,-0.03145752474665642,-0.009190568700432777,0.01835903339087963,1046666.791133375,-5.694595336914062,30.80465698242188,-104.4103240966797,1046666.783414375,-1.499166176438518,0.03625991270275261,0.09223632970413626,-0.02850580029189587,0.02176292054355145,0.02445347234606743,0.0008895471692085266,-0.005199700593948364,-0.01372486352920532,2,0.04607847618088941,-0.0181497483403931,-0.6798855940270963,0.7316441644574436,0.03609786927700043,-0.09210560470819473,-0.9950947165489197,-17.14546966552734,-3.848024368286133,-33.28112030029297,-1,2,1046665.528912042,1,2,1617672463.062319,1617670944.349944,97,1.562887,0,0,65.01641,0,0,1617672335.235306,1046663.784587,0,-1.474426,98.15591,1617672464.09485,587422867,1685438189,0,0,1,1617672463.093537,1,0.14,1617672464.363876,-9.400735,-28.3854,0
1617672464.411199,40,0,0,0,0,0,0,0,0,0,1617672464.405223,-17.16184616088867,-3.688987731933594,-33.36750030517578,36.23538208007812,43.26495361328125,16.94570159912109,1046666.873073375,0.0316314697265625,-0.0934906005859375,-1.001296997070312,1046666.841939375,-0.01650920137763023,-0.00521766534075141,0.01418399624526501,1046666.851119375,-5.58935546875,30.84608459472656,-104.2044982910156,1046666.843186375,-1.49776049908499,0.03540408717413206,0.09017209732858078,-0.02561086602509022,-0.01077079307287931,0.01779824309051037,-0.002537928521633148,-0.002494610846042633,-0.009996891021728516,2,0.04504600486306344,-0.01772819482002445,-0.6794362605948242,0.7321358695427596,0.0352528840303421,-0.09004995226860046,-0.9953131079673767,-17.06010437011719,-3.807268142700195,-33.11534881591797,-1,2,1046665.528912042,1,2,1617672463.062319,1617670944.349944,97,1.562887,0,0,65.01641,0,0,1617672335.235306,1046663.784587,0,-1.474426,98.15591,1617672464.09485,587422867,1685438189,0,0,1,1617672463.093537,1,0.14,1617672464.397307,-9.400735,-28.51156,0
1617672464.434656,41,0,0,0,0,0,0,0,0,0,1617672464.424941,-17.21088218688965,-3.759199142456055,-33.48381805419922,36.22436141967773,43.25393295288086,16.94570922851562,1046666.906694375,0.0252532958984375,-0.0865936279296875,-1.000625610351562,1046666.875563375,0.02825587242841721,0.01255760341882706,0.01769351027905941,1046666.911114375,-5.648666381835938,30.82991027832031,-104.6158447265625,1046666.843186375,-1.49776049908499,0.03540408717413206,0.09017209732858078,-0.02561086602509022,-0.01077079307287931,0.01779824309051037,-0.002537928521633148,-0.002494610846042633,-0.009996891021728516,2,0.04504600486306344,-0.01772819482002445,-0.6794362605948242,0.7321358695427596,0.0352528840303421,-0.09004995226860046,-0.9953131079673767,-17.06010437011719,-3.807268142700195,-33.11534881591797,-1,2,1046665.528912042,1,2,1617672463.062319,1617670944.349944,97,1.562887,0,0,65.01641,0,0,1617672335.235306,1046663.784587,0,-1.474426,98.15591,1617672464.09485,587422867,1685438189,0,0,1,1617672463.093537,1,0.14,1617672464.430702,-9.400735,-29.01968,0
1617672464.472503,42,0,0,0,0,0,0,0,0,0,1617672464.465046,-17.15598678588867,-3.868560791015625,-33.55096435546875,36.2522087097168,43.28178024291992,16.94572257995605,1046666.940315375,0.028106689453125,-0.088104248046875,-1.001815795898438,1046666.909184375,0.01550811994820833,0.01304948888719082,-0.008842493407428265,1046666.911114375,-5.648666381835938,30.82991027832031,-104.6158447265625,1046666.902959375,-1.496933646705935,0.03550787170149174,0.09069454177289586,0.00706322118639946,0.01566516235470772,-0.002573421224951744,-0.009887479245662689,0.005014225840568542,-0.006965458393096924,2,0.04527961107733379,-0.01784927617496588,-0.6791197533311705,0.7324120569595849,0.03535450622439384,-0.09057025611400604,-0.9952623248100281,-17.12175941467285,-3.835525512695312,-33.46079254150391,-1,2,1046665.528912042,1,2,1617672463.062319,1617670944.349944,97,1.562887,0,0,65.01641,0,0,1617672335.235306,1046663.784587,0,-1.474426,98.15591,1617672464.09485,587422867,1685438189,0,0,1,1617672463.093537,1,0.14,1617672464.472355,-9.400735,-29.52566,0
1617672464.504907,43,0,0,0,0,0,0,0,0,0,1617672464.484887,-17.2150993347168,-3.854839324951172,-33.59354400634766,36.28103256225586,43.31060409545898,16.94572639465332,1046666.973938375,0.031402587890625,-0.0914764404296875,-0.9941253662109375,1046666.976428375,0.006473878398537636,0.03698438405990601,-0.03347779810428619,1046666.971104375,-5.703384399414062,30.79258728027344,-104.5188140869141,1046666.962731375,-1.498049476105224,0.03541330867149958,0.09035991143280238,-0.01149176526814699,0.01794466562569141,-0.02628815732896328,-0.004438605159521103,-0.001102112233638763,0.001674115657806396,2,0.04511521520807307,-0.01779524661753178,-0.6795377263559645,0.7320359105755465,0.03526146337389946,-0.09023699909448624,-0.9952958822250366,-17.22721862792969,-3.808198928833008,-33.50920104980469,-1,2,1046665.528912042,1,2,1617672463.062319,1617670944.349944,97,1.562887,0,0,65.01641,0,0,1617672335.235306,1046663.784587,0,-1.474426,98.15591,1617672464.09485,587422867,1685438189,0,0,1,1617672463.093537,1,0.14,1617672464.497437,-9.400735,-21.54415,0
1617672464.543163,44,0,0,0,0,0,0,0,0,0,1617672464.524808,-17.15743255615234,-3.906562805175781,-33.38710021972656,36.34809875488281,43.37767028808594,16.94573974609375,1046667.007559375,0.0380096435546875,-0.0917205810546875,-1.008514404296875,1046666.976428375,0.006473878398537636,0.03698438405990601,-0.03347779810428619,1046666.971104375,-5.703384399414062,30.79258728027344,-104.5188140869141,1046666.962731375,-1.498049476105224,0.03541330867149958,0.09035991143280238,-0.01149176526814699,0.01794466562569141,-0.02628815732896328,-0.004438605159521103,-0.001102112233638763,0.001674115657806396,2,0.04511521520807307,-0.01779524661753178,-0.6795377263559645,0.7320359105755465,0.03526146337389946,-0.09023699909448624,-0.9952958822250366,-17.22721862792969,-3.808198928833008,-33.50920104980469,-1,2,1046665.528912042,1,2,1617672463.062319,1617670944.349944,97,1.562887,0,0,65.01641,0,0,1617672335.235306,1046663.784587,0,-1.474426,98.15591,1617672464.09485,587422867,1685438189,0,0,1,1617672463.093537,1,0.14,1617672464.543134,-9.400735,-23.094,0
1617672464.564636,45,0,0,0,0,0,0,0,0,0,1617672464.544706,-17.17235946655273,-3.853021621704102,-33.43527221679688,36.38972854614258,43.4193000793457,16.94574737548828,1046667.041180375,0.0376434326171875,-0.10247802734375,-0.995697021484375,1046667.010049375,0.04706444591283798,0.01666100136935711,-0.03887922316789627,1046667.031092375,-5.762710571289062,30.80570983886719,-104.5051422119141,1046667.022503375,-1.500017696420031,0.03653098469604493,0.09095036121428465,0.03832197934389114,0.01488818228244781,-0.04018991440534592,0.001012232154607773,-0.006556563079357147,-0.002661287784576416,2,0.04569341621765513,-0.01763209962143553,-0.6802194375934075,0.7313704585050677,0.03637190535664558,-0.09082502126693726,-0.9952024221420288,-17.18969535827637,-3.845363616943359,-33.40945434570312,-1,2,1046665.528912042,1,2,1617672463.062319,1617670944.349944,97,1.562887,0,0,65.01641,0,0,1617672335.235306,1046663.784587,0,-1.474426,98.15591,1617672464.09485,587422867,1685438189,0,0,1,1617672463.093537,1,0.14,1617672464.564006,-9.400735,-23.7541,0
1617672464.609588,46,0,0,0,0,0,0,0,0,0,1617672464.604498,-17.11091995239258,-3.97117805480957,-33.60498809814453,36.48835372924805,43.51792526245117,16.94576835632324,1046667.074804375,0.0411529541015625,-0.105865478515625,-0.993927001953125,1046667.077294375,-0.04854623228311539,0.03033899702131748,-0.002602973720058799,1046667.031092375,-5.762710571289062,30.80570983886719,-104.5051422119141,1046667.022503375,-1.500017696420031,0.03653098469604493,0.09095036121428465,0.03832197934389114,0.01488818228244781,-0.04018991440534592,0.001012232154607773,-0.006556563079357147,-0.002661287784576416,2,0.04569341621765513,-0.01763209962143553,-0.6802194375934075,0.7313704585050677,0.03637190535664558,-0.09082502126693726,-0.9952024221420288,-17.18969535827637,-3.845363616943359,-33.40945434570312,-1,2,1046665.528912042,1,2,1617672463.062319,1617670944.349944,97,1.562887,0,0,65.01641,0,0,1617672335.235306,1046663.784587,0,-1.474426,98.15591,1617672464.09485,587422867,1685438189,0,0,1,1617672463.093537,1,0.14,1617672464.609511,-9.400735,-25.17673,0
1617672464.634311,47,0,0,0,0,0,0,0,0,0,1617672464.624886,-17.13014984130859,-3.951601028442383,-33.42639923095703,36.47946548461914,43.50903701782227,16.94577407836914,1046667.108425375,0.0474090576171875,-0.081268310546875,-1.01129150390625,1046667.077294375,-0.04854623228311539,0.03033899702131748,-0.002602973720058799,1046667.091073375,-5.699249267578125,30.76004028320312,-104.5559692382812,1046667.082276375,-1.501523837337461,0.03727077162848859,0.08938925050485785,-0.05342921614646912,0.02898571453988552,0.004074398428201675,0.009838026016950607,-0.006661750376224518,-0.0128018856048584,2,0.04536234133406943,-0.0168638243810012,-0.6807876923661073,0.7308803373484001,0.03711337223649025,-0.08927025645971298,-0.9953157305717468,-17.11322021484375,-3.991415023803711,-33.51347351074219,-1,2,1046665.528912042,1,2,1617672463.062319,1617670944.349944,97,1.562887,0,0,65.01641,0,0,1617672335.235306,1046663.784587,0,-1.474426,98.15591,1617672464.09485,587422867,1685438189,0,0,1,1617672463.093537,1,0.14,1617672464.630731,-9.400735,-25.92365,0
1617672464.674102,48,0,0,0,0,0,0,0,0,0,1617672464.664428,-17.11258697509766,-3.962291717529297,-33.49881744384766,36.47075653076172,43.50032806396484,16.94578742980957,1046667.142048375,0.0427093505859375,-0.081512451171875,-0.99664306640625,1046667.144538375,0.01392034254968166,0.01403539162129164,-0.005515406373888254,1046667.091073375,-5.699249267578125,30.76004028320312,-104.5559692382812,1046667.082276375,-1.501523837337461,0.03727077162848859,0.08938925050485785,-0.05342921614646912,0.02898571453988552,0.004074398428201675,0.009838026016950607,-0.006661750376224518,-0.0128018856048584,2,0.04536234133406943,-0.0168638243810012,-0.6807876923661073,0.7308803373484001,0.03711337223649025,-0.08927025645971298,-0.9953157305717468,-17.11322021484375,-3.991415023803711,-33.51347351074219,-1,2,1046665.528912042,1,2,1617672463.062319,1617670944.349944,97,1.562887,0,0,65.01641,0,0,1617672335.235306,1046663.784587,0,-1.474426,98.15591,1617672464.09485,587422867,1685438189,0,0,1,1617672463.093537,1,0.14,1617672464.663023,-9.400735,-26.59825,0
1617672464.712682,49,0,0,0,0,0,0,0,0,0,1617672464.704275,-17.11396598815918,-3.98101806640625,-33.353759765625,36.45891571044922,43.48848724365234,16.94579887390137,1046667.175669375,0.0393218994140625,-0.0976104736328125,-0.9969329833984375,1046667.144538375,0.01392034254968166,0.01403539162129164,-0.005515406373888254,1046667.151058375,-5.730712890625,30.75346374511719,-104.4518280029297,1046667.142048375,-1.501255328538334,0.0372832740601456,0.08951025967565768,0.003980554640293121,0.003425899893045425,-0.004907252267003059,0.004561707377433777,0.004490874707698822,0.006763815879821777,2,0.04541302023534486,-0.01689442711482968,-0.6806866128517389,0.7309705360130114,0.03712541237473488,-0.08939077705144882,-0.9953044652938843,-17.1602725982666,-3.892333984375,-33.46035766601562,-1,2,1046665.528912042,1,2,1617672463.062319,1617670944.349944,97,1.562887,0,0,65.01641,0,0,1617672335.235306,1046664.733665,0,-1.474426,98.15591,1617672464.09485,587422867,1685438189,0,0,1,1617672463.093537,1,0.14,1617672464.697352,-9.400735,-27.76711,0
1617672464.73364,50,0,0,0,0,0,0,0,0,0,1617672464.724084,-17.16525077819824,-3.943693161010742,-33.48854064941406,36.42606353759766,43.45563507080078,16.94580459594727,1046667.209290375,0.040435791015625,-0.077362060546875,-0.9910125732421875,1046667.178159375,0.01321140956133604,0.03398486599326134,0.02351677790284157,1046667.151058375,-5.730712890625,30.75346374511719,-104.4518280029297,1046667.142048375,-1.501255328538334,0.0372832740601456,0.08951025967565768,0.003980554640293121,0.003425899893045425,-0.004907252267003059,0.004561707377433777,0.004490874707698822,0.006763815879821777,2,0.04541302023534486,-0.01689442711482968,-0.6806866128517389,0.7309705360130114,0.03712541237473488,-0.08939077705144882,-0.9953044652938843,-17.1602725982666,-3.892333984375,-33.46035766601562,-1,2,1046665.528912042,1,2,1617672463.062319,1617670944.349944,97,1.562887,0,0,65.01641,0,0,1617672335.235306,1046664.733665,0,-1.474426,98.15591,1617672464.09485,587422867,1685438189,0,0,1,1617672463.093537,1,0.14,1617672464.73024,-9.400735,-28.22989,0
1617672464.783895,51,0,0,0,0,0,0,0,0,0,1617672464.763974,-17.09502792358398,-3.967809677124023,-33.46672058105469,36.40287780761719,43.43244934082031,16.94581604003906,1046667.242914375,0.03692626953125,-0.0810546875,-0.9688720703125,1046667.245404375,-0.05970647186040878,-0.04246916249394417,-0.01179913524538279,1046667.211042375,-5.631637573242188,30.72862243652344,-104.5499420166016,1046667.201820375,-1.500320915961585,0.03867282633810487,0.08985462859890422,0.02193131484091282,-0.02191981114447117,0.02766734175384045,0.00130307674407959,0.01264636218547821,0.005352973937988281,2,0.04601929882616731,-0.01648247741240835,-0.6803056073963538,0.7312966875479725,0.03850721195340157,-0.08973376452922821,-0.9952210783958435,-17.12987327575684,-3.893863677978516,-33.51645660400391,-1,2,1046665.528912042,1,2,1617672463.062319,1617670944.349944,97,1.562887,0,0,65.01641,0,0,1617672335.235306,1046664.733665,0,-1.474426,98.15591,1617672464.09485,587422867,1685438189,0,0,1,1617672463.093537,1,0.14,1617672464.772507,-9.400735,-28.99576,0
1617672464.803462,52,0,0,0,0,0,0,0,0,0,1617672464.783855,-17.15749549865723,-3.944833755493164,-33.54254150390625,36.41045379638672,43.44002532958984,16.94582176208496,1046667.276535375,0.031036376953125,-0.105316162109375,-0.9501800537109375,1046667.245404375,-0.05970647186040878,-0.04246916249394417,-0.01179913524538279,1046667.271027375,-5.740066528320312,30.86758422851562,-104.6186676025391,1046667.261593375,-1.500172472362124,0.03673447517039611,0.08785540170435352,-0.1064663380384445,-0.02757743000984192,0.002198734320700169,-0.004785142838954926,-0.01650562882423401,0.04478758573532104,2,0.04463127116029147,-0.01650661026041837,-0.6803392883520175,0.7313508327212465,0.03658456727862358,-0.08774242550134659,-0.995471179485321,-17.1622142791748,-3.960262298583984,-33.49353790283203,-1,2,1046665.528912042,1,2,1617672463.062319,1617670944.349944,97,1.562887,0,0,65.01641,0,0,1617672335.235306,1046664.733665,0,-1.474426,98.15591,1617672464.09485,587422867,1685438189,0,0,1,1617672463.093537,1,0.14,1617672464.797441,-9.400735,-29.33103,0
1617672464.845231,53,0,0,0,0,0,0,0,0,0,1617672464.843442,-17.1642894744873,-3.64531135559082,-33.46714019775391,36.35518646240234,43.38475799560547,16.94585990905762,1046667.310156375,0.0206146240234375,-0.1009979248046875,-0.9608612060546875,1046667.279025375,-0.1142858266830444,0.01332965400069952,0.01359810028225183,1046667.271027375,-5.740066528320312,30.86758422851562,-104.6186676025391,1046667.261593375,-1.500172472362124,0.03673447517039611,0.08785540170435352,-0.1064663380384445,-0.02757743000984192,0.002198734320700169,-0.004785142838954926,-0.01650562882423401,0.04478758573532104,2,0.04463127116029147,-0.01650661026041837,-0.6803392883520175,0.7313508327212465,0.03658456727862358,-0.08774242550134659,-0.995471179485321,-17.1622142791748,-3.960262298583984,-33.49353790283203,-1,2,1046665.528912042,1,2,1617672463.062319,1617670944.349944,97,1.562887,0,0,65.01641,0,0,1617672335.235306,1046664.733665,0,-1.474426,98.15591,1617672464.09485,587422867,1685438189,0,0,1,1617672463.093537,1,0.14,1617672464.845193,-9.400735,-30.21649,0
1617672464.873474,54,0,0,0,0,0,0,0,0,0,1617672464.863498,-17.11103820800781,-3.455615997314453,-33.45029449462891,36.34591293334961,43.37548446655273,16.94587326049805,1046667.3437795,0.0415496826171875,-0.0822601318359375,-1.044937133789062,1046667.312648375,-0.2249210029840469,0.1191831156611443,0.009468869306147099,1046667.3310085,-5.663925170898438,31.26493835449219,-104.6002655029297,1046667.3213655,-1.499138429866427,0.03943502874317117,0.07749424966526834,-0.2358281761407852,0.09936976432800293,0.003150152042508125,-0.001662950962781906,-0.01293057203292847,-0.03371399641036987,2,0.04177266062128784,-0.01196648590557541,-0.6801207175226212,0.7318111729095746,0.03930648788809776,-0.07741671055555344,-0.9962236881256104,-17.13486099243164,-3.517833709716797,-33.48609924316406,-1,2,1046665.528912042,1,2,1617672463.062319,1617670944.349944,97,1.562887,0,0,65.01641,0,0,1617672335.235306,1046664.733665,0,-1.474426,98.15591,1617672464.09485,587422867,1685438189,0,0,1,1617672463.093537,1,0.14,1617672464.86391,-9.400735,-25.27016,0
1617672464.902929,55,0,0,0,0,0,0,0,0,0,1617672464.883461,-17.10801124572754,-3.165363311767578,-33.34822845458984,36.357421875,43.38699340820312,16.94588279724121,1046667.3774005,0.034271240234375,-0.076873779296875,-1.030258178710938,1046667.3462695,-0.1495490074157715,0.02425873465836048,-0.01831269450485706,1046667.3310085,-5.663925170898438,31.26493835449219,-104.6002655029297,1046667.3213655,-1.499138429866427,0.03943502874317117,0.07749424966526834,-0.2358281761407852,0.09936976432800293,0.003150152042508125,-0.001662950962781906,-0.01293057203292847,-0.03371399641036987,2,0.04177266062128784,-0.01196648590557541,-0.6801207175226212,0.7318111729095746,0.03930648788809776,-0.07741671055555344,-0.9962236881256104,-17.13486099243164,-3.517833709716797,-33.48609924316406,-1,2,1046665.528912042,1,2,1617672463.062319,1617670944.349944,97,1.562887,0,0,65.01641,0,0,1617672335.235306,1046664.733665,0,-1.474426,98.15591,1617672464.09485,587422867,1685438189,0,0,1,1617672463.093537,1,0.14,1617672464.90285,-9.400735,-26.45181,0
1617672464.952911,56,0,0,0,0,0,0,0,0,0,1617672464.943121,-17.00154113769531,-3.077140808105469,-33.40625,36.44551467895508,43.4750862121582,16.94588851928711,1046667.4110235,0.0451812744140625,-0.07696533203125,-1.061492919921875,1046667.3798905,-0.01512861903756857,0.1074023544788361,-0.03311161324381828,1046667.3909955,-5.67779541015625,31.63871765136719,-104.6529541015625,1046667.3811375,-1.499930237529415,0.04218606118469554,0.07131863597311681,-0.02426652982831001,0.1061757132411003,-0.03152581304311752,-0.003064766526222229,-0.008346915245056152,-0.04452145099639893,2,0.04044812566513464,-0.008872226230220564,-0.6804781811492262,0.73159731227291,0.04206633940339088,-0.07125819474458694,-0.9965704679489136,-17.13680839538574,-3.00767707824707,-33.57546234130859,-1,2,1046665.528912042,1,2,1617672463.062319,1617670944.349944,97,1.562887,0,0,65.01641,0,0,1617672335.235306,1046664.733665,0,-1.474426,98.15591,1617672464.09485,587422867,1685438189,0,0,1,1617672463.093537,1,0.14,1617672464.9306,-9.400735,-27.05647,0
