loggingTime,loggingSample,locationTimestamp_since1970,locationLatitude,locationLongitude,locationAltitude,locationSpeed,locationCourse,locationVerticalAccuracy,locationHorizontalAccuracy,locationFloor,locationHeadingTimestamp_since1970,locationHeadingX,locationHeadingY,locationHeadingZ,locationTrueHeading,locationMagneticHeading,locationHeadingAccuracy,accelerometerTimestamp_sinceReboot,accelerometerAccelerationX,accelerometerAccelerationY,accelerometerAccelerationZ,gyroTimestamp_sinceReboot,gyroRotationX,gyroRotationY,gyroRotationZ,magnetometerTimestamp_sinceReboot,magnetometerX,magnetometerY,magnetometerZ,motionTimestamp_sinceReboot,motionYaw,motionRoll,motionPitch,motionRotationRateX,motionRotationRateY,motionRotationRateZ,motionUserAccelerationX,motionUserAccelerationY,motionUserAccelerationZ,motionAttitudeReferenceFrame,motionQuaternionX,motionQuaternionY,motionQuaternionZ,motionQuaternionW,motionGravityX,motionGravityY,motionGravityZ,motionMagneticFieldX,motionMagneticFieldY,motionMagneticFieldZ,motionHeading,motionMagneticFieldCalibrationAccuracy,activityTimestamp_sinceReboot,activity,activityActivityConfidence,activityActivityStartDate,pedometerStartDate,pedometerNumberofSteps,pedometerAverageActivePace,pedometerCurrentPace,pedometerCurrentCadence,pedometerDistance,pedometerFloorAscended,pedometerFloorDescended,pedometerEndDate,altimeterTimestamp_sinceReboot,altimeterReset,altimeterRelativeAltitude,altimeterPressure,IP_Timestamp_since1970,IP_en0,IP_pdp_ip0,deviceID,deviceOrientationTimeStamp_since1970,deviceOrientation,batteryTimeStamp_since1970,batteryState,batteryLevel,avAudioRecorder_Timestamp_since1970,avAudioRecorderPeakPower,avAudioRecorderAveragePower,label
1617982136.037072,1,0,0,0,0,0,0,0,0,0,1617982136.035765,15.68222808837891,1.626308441162109,-40.49431991577148,280.0102233886719,287.0313110351562,13.6228084564209,26389.138372625,0.010894775390625,-0.130279541015625,-1.012725830078125,26389.133392625,-0.1427922993898392,-0.1350803226232529,0.02616475895047188,26389.109609625,92.11723327636719,19.04277038574219,-27.75933837890625,26389.114714625,0.7055047943151969,-0.007692038520078295,0.1504384375753839,-0.3413302898406982,-0.1291280835866928,0.02612464688718319,0.02593080699443817,-0.0312654972076416,-0.03756886720657349,2,0.07184551913664039,0.02236320114114438,0.3442313280209619,0.9358649311148046,-0.007605085615068674,-0.1498716324567795,-0.9886761903762817,16.03619384765625,1.158685684204102,-40.40453720092773,-1,2,26388.846207625,4,2,1617982135.761883,0,0,0,0,0,0,0,0,0,26385.907109,0,-0.2457581,97.3009,0,0,0,0,0,1,1617982136.009866,1,0.78,1617982136.037014,-25.70204,-44.79414,0
1617982136.045459,2,0,0,0,0,0,0,0,0,0,1617982136.035765,15.68222808837891,1.626308441162109,-40.49431991577148,280.0102233886719,287.0313110351562,13.6228084564209,26389.171993625,-0.0087738037109375,-0.1215972900390625,-1.034271240234375,26389.167012625,0.04242175817489624,-0.09397869557142258,-0.05801563337445259,26389.169603625,91.73992919921875,19.50735473632812,-27.78811645507812,26389.114714625,0.7055047943151969,-0.007692038520078295,0.1504384375753839,-0.3413302898406982,-0.1291280835866928,0.02612464688718319,0.02593080699443817,-0.0312654972076416,-0.03756886720657349,2,0.07184551913664039,0.02236320114114438,0.3442313280209619,0.9358649311148046,-0.007605085615068674,-0.1498716324567795,-0.9886761903762817,16.03619384765625,1.158685684204102,-40.40453720092773,-1,2,26388.846207625,4,2,1617982135.761883,0,0,0,0,0,0,0,0,0,26385.907109,0,-0.2457581,97.3009,0,0,0,0,0,1,1617982136.009866,1,0.78,1617982136.037014,-25.70204,-44.79414,0
1617982136.075397,3,0,0,0,0,0,0,0,0,0,1617982136.056017,15.70198822021484,1.568782806396484,-40.34439468383789,280.08447265625,287.1055603027344,13.62284278869629,26389.205613625,0.006805419921875,-0.16754150390625,-1.039230346679688,26389.200633625,-0.1667871177196503,-0.3913075625896454,-0.05203843489289284,26389.169603625,91.73992919921875,19.50735473632812,-27.78811645507812,26389.174483625,0.7048944673535084,-0.01311483439304236,0.1462779889651055,0.0001415163278579712,-0.1490105837583542,-0.0628482773900032,0.007359080947935581,0.01801028847694397,-0.04961347579956055,2,0.07083806131742139,0.01908637534871112,0.3438156511524129,0.9361669235041843,-0.01297440193593502,-0.1457568854093552,-0.9892353415489197,15.65007781982422,1.616971969604492,-40.41562652587891,-1,2,26388.846207625,4,2,1617982135.761883,0,0,0,0,0,0,0,0,0,26385.907109,0,-0.2457581,97.3009,0,0,0,0,0,1,1617982136.009866,1,0.78,1617982136.046159,-25.70204,-44.79414,0
1617982136.105523,4,0,0,0,0,0,0,0,0,0,1617982136.095735,15.33444213867188,1.502632141113281,-40.61559295654297,280.1875610351562,287.2086486816406,13.62291622161865,26389.239232625,-0.0423431396484375,-0.119049072265625,-0.9207000732421875,26389.234252625,-0.131578266620636,-0.161577969789505,-0.02087918296456337,26389.229593625,91.28279113769531,19.56346130371094,-28.10554504394531,26389.174483625,0.7048944673535084,-0.01311483439304236,0.1462779889651055,0.0001415163278579712,-0.1490105837583542,-0.0628482773900032,0.007359080947935581,0.01801028847694397,-0.04961347579956055,2,0.07083806131742139,0.01908637534871112,0.3438156511524129,0.9361669235041843,-0.01297440193593502,-0.1457568854093552,-0.9892353415489197,15.65007781982422,1.616971969604492,-40.41562652587891,-1,2,26388.846207625,4,2,1617982135.761883,0,0,0,0,0,0,0,0,0,26385.907109,0,-0.2457581,97.3009,0,0,0,0,0,1,1617982136.009866,1,0.78,1617982136.079581,-25.70204,-45.80992,0
1617982136.145022,5,0,0,0,0,0,0,0,0,0,1617982136.135569,14.80348968505859,1.88482666015625,-41.00564956665039,280.2875671386719,287.3086547851562,13.62297821044922,26389.272853625,-0.027740478515625,-0.1349639892578125,-0.938873291015625,26389.267871625,0.08642676472663879,0.06330280750989914,-0.05052735656499863,26389.229593625,91.28279113769531,19.56346130371094,-28.10554504394531,26389.234252625,0.7022884080701401,-0.02967422858742258,0.1369299174063254,-0.1431010663509369,-0.1671328991651535,-0.01847723312675953,-0.0129510723054409,0.01745331287384033,0.0695035457611084,2,0.06932133608285074,0.009630467561899083,0.3421757018304803,0.9370260315807584,-0.02939215674996376,-0.1365024149417877,-0.9902036190032959,15.22406005859375,1.621910095214844,-40.67723083496094,-1,2,26388.846207625,4,2,1617982135.761883,0,0,0,0,0,0,0,0,0,26386.853398,0,-0.3170776,97.30171,0,0,0,0,0,1,1617982136.009866,1,0.78,1617982136.11293,-25.70204,-46.55639,0
1617982136.175491,6,0,0,0,0,0,0,0,0,0,1617982136.155644,14.75267028808594,1.843265533447266,-40.99147796630859,280.3312377929688,287.3523254394531,13.62300586700439,26389.306472625,-0.013580322265625,-0.1544342041015625,-1.010101318359375,26389.301492625,-0.06932021677494049,-0.1048166900873184,-0.03287379443645477,26389.289584625,90.88375854492188,19.67607116699219,-28.42338562011719,26389.294021625,0.6996595312621734,-0.02795682841533436,0.13807048605097,-0.01991305500268936,-0.04806169122457504,-0.02976788021624088,0.007957467809319496,-0.01797695457935333,-0.01957768201828003,2,0.06957538019921139,0.01053984013438448,0.3409822665662994,0.9374323428877345,-0.02768716774880886,-0.1376322209835052,-0.9900963306427002,14.77301788330078,1.799417495727539,-41.01158905029297,-1,2,26388.846207625,4,2,1617982135.761883,0,0,0,0,0,0,0,0,0,26386.853398,0,-0.3170776,97.30171,0,0,0,0,0,1,1617982136.009866,1,0.78,1617982136.14597,-25.70204,-46.77521,0
1617982136.214928,7,0,0,0,0,0,0,0,0,0,1617982136.195456,14.65665435791016,1.946842193603516,-41.04845428466797,280.4022521972656,287.42333984375,13.62306118011475,26389.34009375,-0.0279388427734375,-0.1425933837890625,-1.000534057617188,26389.33511275,-0.2266752272844315,-0.2672578096389771,-0.01613422855734825,26389.289584625,90.88375854492188,19.67607116699219,-28.42338562011719,26389.294021625,0.6996595312621734,-0.02795682841533436,0.13807048605097,-0.01991305500268936,-0.04806169122457504,-0.02976788021624088,0.007957467809319496,-0.01797695457935333,-0.01957768201828003,2,0.06957538019921139,0.01053984013438448,0.3409822665662994,0.9374323428877345,-0.02768716774880886,-0.1376322209835052,-0.9900963306427002,14.77301788330078,1.799417495727539,-41.01158905029297,-1,2,26388.846207625,4,2,1617982135.761883,0,0,0,0,0,0,0,0,0,26386.853398,0,-0.3170776,97.30171,0,0,0,0,0,1,1617982136.009866,1,0.78,1617982136.21303,-25.70204,-41.80648,0
1617982136.24909,8,0,0,0,0,0,0,0,0,0,1617982136.234992,14.35914611816406,2.247774124145508,-40.97622680664062,280.4746398925781,287.4957275390625,13.62311744689941,26389.37371275,-0.0626373291015625,-0.1309661865234375,-0.9810791015625,26389.36873175,-0.1605204343795776,-0.1406101137399673,-0.00609437795355916,26389.34957475,90.51528930664062,20.11936950683594,-28.43650817871094,26389.35379075,0.6977907225077388,-0.04033790921212517,0.1266160171450434,-0.28730309009552,-0.2039655596017838,-0.0246504619717598,-0.0003249198198318481,0.001338988542556763,-0.007652401924133301,2,0.06632260648622711,0.002709073096075355,0.3399066303116819,0.9381138733237041,-0.04000414907932281,-0.1262779831886292,-0.9911879301071167,14.44548034667969,2.203582763671875,-41.06364059448242,-1,2,26388.846207625,4,2,1617982135.761883,0,0,0,0,0,0,0,0,0,26386.853398,0,-0.3170776,97.30171,0,0,0,0,0,1,1617982136.009866,1,0.78,1617982136.21303,-25.70204,-41.80648,0
1617982136.274984,9,0,0,0,0,0,0,0,0,0,1617982136.255055,14.10087585449219,2.51609992980957,-41.09473037719727,280.4687194824219,287.4898071289062,13.62314605712891,26389.40733275,-0.056854248046875,-0.1193084716796875,-1.001846313476562,26389.40235275,0.06665173172950745,0.01831349357962608,0.04703222215175629,26389.34957475,90.51528930664062,20.11936950683594,-28.43650817871094,26389.35379075,0.6977907225077388,-0.04033790921212517,0.1266160171450434,-0.28730309009552,-0.2039655596017838,-0.0246504619717598,-0.0003249198198318481,0.001338988542556763,-0.007652401924133301,2,0.06632260648622711,0.002709073096075355,0.3399066303116819,0.9381138733237041,-0.04000414907932281,-0.1262779831886292,-0.9911879301071167,14.44548034667969,2.203582763671875,-41.06364059448242,-1,2,26388.846207625,4,2,1617982135.761883,0,0,0,0,0,0,0,0,0,26386.853398,0,-0.3170776,97.30171,0,0,0,0,0,1,1617982136.009866,1,0.78,1617982136.260092,-26.8166,-42.97729,0
1617982136.319386,10,0,0,0,0,0,0,0,0,0,1617982136.314787,13.90565490722656,2.66364860534668,-41.17704772949219,280.3958129882812,287.4169006347656,13.62322998046875,26389.44095375,-0.0688934326171875,-0.1036529541015625,-1.010330200195312,26389.43597175,0.02833763137459755,0.01605140417814255,-0.01823573000729084,26389.40956175,90.08273315429688,20.65618896484375,-28.50299072265625,26389.41355875,0.698848105118771,-0.04276806868742678,0.1242107749467267,0.04360799491405487,0.02384108304977417,0.02807789854705334,-0.02662046998739243,0.01582885533571243,-0.007146716117858887,2,0.06560781582372595,0.00119213455502053,0.340371627351893,0.9379986841426357,-0.04242563620209694,-0.1238916292786598,-0.9913883805274963,13.98393249511719,2.750555038452148,-41.1273307800293,-1,2,26388.846207625,4,2,1617982135.761883,0,0,0,0,0,0,0,0,0,26386.853398,0,-0.3170776,97.30171,0,0,0,0,0,1,1617982136.009866,1,0.78,1617982136.319341,-28.48843,-43.30645,0
1617982136.344649,11,0,0,0,0,0,0,0,0,0,1617982136.334882,13.9605712890625,2.738643646240234,-41.12073135375977,280.4275817871094,287.4486694335938,13.62325859069824,26389.47457275,-0.0724334716796875,-0.1063690185546875,-0.9937286376953125,26389.46959275,0.04885062947869301,0.04060281813144684,-0.0463150329887867,26389.46955575,90.00480651855469,20.77104187011719,-28.42764282226562,26389.41355875,0.698848105118771,-0.04276806868742678,0.1242107749467267,0.04360799491405487,0.02384108304977417,0.02807789854705334,-0.02662046998739243,0.01582885533571243,-0.007146716117858887,2,0.06560781582372595,0.00119213455502053,0.340371627351893,0.9379986841426357,-0.04242563620209694,-0.1238916292786598,-0.9913883805274963,13.98393249511719,2.750555038452148,-41.1273307800293,-1,2,26388.846207625,4,2,1617982135.761883,0,0,0,0,0,0,0,0,0,26386.853398,0,-0.3170776,97.30171,0,0,0,0,0,1,1617982136.009866,1,0.78,1617982136.319341,-28.48843,-43.30645,0
1617982136.380301,12,0,0,0,0,0,0,0,0,0,1617982136.374551,13.99717712402344,2.891494750976562,-41.13079833984375,280.5293273925781,287.5504150390625,13.62331390380859,26389.50819275,-0.041900634765625,-0.1436614990234375,-1.008377075195312,26389.50321275,-0.01433499716222286,0.01749750040471554,-0.03900971636176109,26389.46955575,90.00480651855469,20.77104187011719,-28.42764282226562,26389.47332775,0.6978311480501856,-0.04175508894312498,0.1260186114317801,0.03572677820920944,0.04239200055599213,-0.0489434041082859,-0.02867176756262779,0.01782092452049255,0.001260995864868164,2,0.06628345123708673,0.001943413978483861,0.3398907930589056,0.938124321076317,-0.04141194000840187,-0.1256853342056274,-0.9912054538726807,13.91878509521484,2.837581634521484,-41.05142211914062,-1,2,26388.846207625,4,2,1617982135.761883,0,0,0,0,0,0,0,0,0,26386.853398,0,-0.3170776,97.30171,0,0,0,0,0,1,1617982136.009866,1,0.78,1617982136.380275,-30.16027,-44.78724,0
1617982136.414091,13,0,0,0,0,0,0,0,0,0,1617982136.394664,13.93251037597656,2.849893569946289,-41.29050827026367,280.4932250976562,287.5143127441406,13.62334060668945,26389.54181275,-0.0369873046875,-0.2236480712890625,-0.88006591796875,26389.53683175,0.7053129076957703,0.4903531968593597,0.1366838067770004,26389.52953875,90.08747863769531,20.63404846191406,-28.52017211914062,26389.53309675,0.69827974314727,-0.03729880649722719,0.1355834546932339,0.6511598229408264,0.4419301152229309,0.122454859316349,0.003454804420471191,-0.08741156756877899,0.1247007846832275,2,0.07000655979895144,0.00568609088284781,0.3400575361298591,0.937778105106217,-0.03694793209433556,-0.1351684331893921,-0.99013352394104,13.96994018554688,2.771240234375,-41.16593551635742,-1,2,26388.846207625,4,2,1617982135.761883,0,0,0,0,0,0,0,0,0,26386.853398,0,-0.3170776,97.30171,0,0,0,0,0,1,1617982136.009866,1,0.78,1617982136.413056,-30.71755,-44.97558,0
1617982136.443898,14,0,0,0,0,0,0,0,0,0,1617982136.434534,14.30266571044922,2.301836013793945,-41.14060211181641,280.1740112304688,287.1950988769531,13.62341594696045,26389.57543275,-0.003814697265625,-0.104461669921875,-1.07257080078125,26389.57045275,0.3953473269939423,0.1601862162351608,-0.03262851759791374,26389.52953875,90.08747863769531,20.63404846191406,-28.52017211914062,26389.53309675,0.69827974314727,-0.03729880649722719,0.1355834546932339,0.6511598229408264,0.4419301152229309,0.122454859316349,0.003454804420471191,-0.08741156756877899,0.1247007846832275,2,0.07000655979895144,0.00568609088284781,0.3400575361298591,0.937778105106217,-0.03694793209433556,-0.1351684331893921,-0.99013352394104,13.96994018554688,2.771240234375,-41.16593551635742,-1,2,26388.846207625,4,2,1617982135.761883,0,0,0,0,0,0,0,0,0,26386.853398,0,-0.3170776,97.30171,0,0,0,0,0,1,1617982136.009866,1,0.78,1617982136.413056,-30.71755,-44.97558,0
1617982136.48989,15,0,0,0,0,0,0,0,0,0,1617982136.47411,15.02398681640625,1.197589874267578,-40.83642578125,280.2806701660156,287.3017578125,13.62352275848389,26389.60905375,-0.048095703125,-0.178741455078125,-1.011398315429688,26389.60407175,-0.1220510751008987,-0.02137559652328491,-0.0290385764092207,26389.58951775,91.086181640625,19.12159729003906,-28.17030334472656,26389.59286575,0.7013555009036665,-0.02084729397658818,0.1619907664757879,-0.01050891261547804,-0.01095805689692497,-0.07039115577936172,-0.009075039997696877,0.02802819013595581,-0.03822386264801025,2,0.0795478135545491,0.0180357742559148,0.3415975377129842,0.9363002563204962,-0.02057287469506264,-0.1612832248210907,-0.9866937398910522,14.89873504638672,1.36016845703125,-40.84367752075195,-1,2,26388.846207625,4,2,1617982135.761883,0,0,0,0,0,0,0,0,0,26386.853398,0,-0.3170776,97.30171,0,0,0,0,0,1,1617982136.009866,1,0.78,1617982136.479818,-28.13221,-42.87477,0
1617982136.538546,16,0,0,0,0,0,0,0,0,0,1617982136.528548,15.14383697509766,1.105424880981445,-40.42650604248047,280.103759765625,287.1248474121094,13.62368202209473,26389.66882175,0.020660400390625,-0.1395111083984375,-1.042327880859375,26389.63893675,0.06899717450141907,0.0201388243585825,0.08259900659322739,26389.64950175,91.22573852539062,19.08322143554688,-27.92591857910156,26389.65263375,0.703402869055238,-0.02180129661219624,0.1591957162749608,0.2119557112455368,-0.004162916913628578,0.04571126773953438,-0.002844452857971191,0.01872308552265167,-0.02345383167266846,2,0.07838544387111575,0.01718973482029771,0.3425707213111441,0.9360586441397454,-0.02152391709387302,-0.1585241407155991,-0.9871204495429993,15.124755859375,1.178598403930664,-40.60595321655273,-1,2,26388.846207625,4,2,1617982135.761883,0,0,0,0,0,0,0,0,0,26386.853398,0,-0.3170776,97.30171,0,0,0,0,0,1,1617982136.009866,1,0.78,1617982136.513032,-28.13221,-43.73956,0
1617982136.598277,17,0,0,0,0,0,0,0,0,0,1617982136.588426,15.07902526855469,0.6409568786621094,-39.64511108398438,280.2687072753906,287.289794921875,13.62383651733398,26389.72858975,-0.093170166015625,-0.1298370361328125,-0.93988037109375,26389.70866775,-0.2873800992965698,-0.2510277032852173,-0.09345138818025589,26389.70948475,91.23039245605469,18.47909545898438,-26.93806457519531,26389.71240275,0.7023123239871728,-0.03104756289253268,0.1616291201790596,-0.3243644535541534,-0.2371855080127716,-0.1060356497764587,-0.01164421252906322,-0.05132348835468292,-0.03857940435409546,2,0.08111347789529522,0.01323699110650043,0.3416429861785781,0.9362294650369518,-0.03063797950744629,-0.1609263122081757,-0.986490786075592,15.15695953369141,0.6025009155273438,-39.59744262695312,-1,2,26388.846207625,4,2,1617982135.761883,0,0,0,0,0,0,0,0,0,26386.853398,0,-0.3170776,97.30171,0,0,0,0,1617982136.594888,1,1617982136.009866,1,0.78,1617982136.578716,-28.13221,-45.03751,0
1617982136.658455,18,0,0,0,0,0,0,0,0,0,1617982136.648326,13.94520568847656,2.187311172485352,-40.62080001831055,280.8855895996094,287.9066772460938,13.62398242950439,26389.78835875,-0.0870208740234375,-0.0624542236328125,-0.9855499267578125,26389.77839775,-0.5078458786010742,-0.7382681965827942,-0.06213314458727837,26389.76946775,90.254150390625,19.8304443359375,-27.83616638183594,26389.77217075,0.6911453580461813,-0.05573306070855423,0.1236202607464347,-0.624426543712616,-0.7103967070579529,-0.03580310568213463,-0.004337061196565628,0.009749695658683777,-0.02560579776763916,2,0.06751656376740751,-0.005249816187010186,0.3363380552970249,0.9393033348924589,-0.05527912080287933,-0.1233056411147118,-0.9908279180526733,14.25560760498047,1.784904479980469,-40.33424377441406,-1,2,26388.846207625,4,2,1617982135.761883,0,0,0,0,0,0,0,0,0,26386.853398,0,-0.3170776,97.30171,0,0,0,0,1617982136.594888,1,1617982136.009866,1,0.78,1617982136.64646,-28.13221,-41.17529,0
1617982136.718516,19,0,0,0,0,0,0,0,0,0,1617982136.708369,12.50364685058594,3.408514022827148,-40.88817596435547,281.3533325195312,288.3744201660156,13.62414360046387,26389.84812775,-0.0791168212890625,-0.1543731689453125,-0.8915863037109375,26389.84812775,0.2016425728797913,0.3208283483982086,-0.06131076067686081,26389.82945875,88.69258117675781,21.2674560546875,-28.19564819335938,26389.83193975,0.6828742216652168,-0.07522328666411567,0.1107008528259734,0.08506989479064941,0.06804307550191879,-0.1039775907993317,-0.0103144571185112,-0.007887564599514008,0.08741229772567749,2,0.06466348295834559,-0.01686681225079857,0.332132149063449,0.9408626507083716,-0.07469235360622406,-0.1104748919606209,-0.9910683035850525,12.63582611083984,3.348604202270508,-40.86219024658203,-1,2,26388.846207625,4,2,1617982135.761883,0,0,0,0,0,0,0,0,0,26386.853398,0,-0.3170776,97.30171,0,0,0,0,1617982136.594888,1,1617982136.009866,1,0.78,1617982136.712986,-28.13221,-31.62665,0
1617982136.777687,20,0,0,0,0,0,0,0,0,0,1617982136.75047,12.72678375244141,3.395780563354492,-40.99731063842773,281.4327697753906,288.453857421875,13.6242504119873,26389.90789675,-0.026214599609375,-0.10748291015625,-1.0147705078125,26389.88299275,0.2208407670259476,0.4116258919239044,-0.06247056648135185,26389.88944775,89.15249633789062,21.10397338867188,-27.84967041015625,26389.89170875,0.6801053975200322,-0.05481578771560641,0.122830041769621,0.1561347842216492,0.3211966454982758,-0.08578988909721375,-0.004538718611001968,-0.006125472486019135,0.00498276948928833,2,0.0669632545954269,-0.00532289408948099,0.3311972292909363,0.9411674384836062,-0.05437555909156799,-0.1225214153528214,-0.9909752011299133,12.95790100097656,3.262784957885742,-40.60282135009766,-1,2,26388.846207625,4,2,1617982135.761883,0,0,0,0,0,0,0,0,0,26386.853398,0,-0.3170776,97.30171,0,0,0,0,1617982136.594888,1,1617982136.009866,1,0.78,1617982136.745841,-28.13221,-32.07992,0
1617982136.837512,21,0,0,0,0,0,0,0,0,0,1617982136.82907,13.54126739501953,3.024515151977539,-39.9122428894043,281.9918518066406,289.012939453125,13.6244649887085,26389.96766575,-0.0400848388671875,-0.1504058837890625,-0.9679412841796875,26389.95272275,-0.2735543251037598,-0.1916732937097549,-0.06777984648942947,26389.94943275,89.7060546875,20.81517028808594,-27.18241882324219,26389.95147775,0.6716387357081237,-0.05587983810606642,0.1180324418616706,-0.2837169170379639,-0.2015331089496613,-0.06870975345373154,0.0229150801897049,-0.04699061065912247,0.003790855407714844,2,0.0648557134993816,-0.006900359650718862,0.327285070424675,0.9426720554673501,-0.05546216666698456,-0.1177585646510124,-0.9914922714233398,13.61627960205078,2.901174545288086,-39.79276275634766,-1,2,26388.846207625,4,2,1617982135.761883,0,0,0,0,0,0,0,0,0,26386.853398,0,-0.3170776,97.30171,0,0,0,0,1617982136.594888,1,1617982136.009866,1,0.78,1617982136.812912,-28.13221,-34.19896,0
1617982136.89716,22,0,0,0,0,0,0,0,0,0,1617982136.887595,13.22996520996094,3.601997375488281,-40.11616134643555,282.0794677734375,289.1005554199219,13.62462615966797,26390.02743375,-0.06365966796875,-0.1080322265625,-0.9949951171875,26390.02245375,0.1139550656080246,0.1814014762639999,-0.04161854833364487,26390.00941775,89.38182067871094,21.52323913574219,-27.58810424804688,26390.01124675,0.669685270306132,-0.0580668334191887,0.1079149612372886,0.05470879748463631,0.1261095851659775,-0.02394027821719646,-0.001629646867513657,-0.007009975612163544,0.003188431262969971,2,0.06044034907585707,-0.0096617433377791,0.3265253369793262,0.9432046345157384,-0.05769661441445351,-0.1077056303620338,-0.9925072193145752,13.26107025146484,3.615577697753906,-40.25200271606445,-1,2,26388.846207625,4,2,1617982135.761883,0,0,0,0,0,0,0,0,0,26386.853398,0,-0.3170776,97.30171,0,0,0,0,1617982136.594888,1,1617982136.009866,1,0.78,1617982136.879627,-28.13221,-36.46314,0
1617982136.957053,23,0,0,0,0,0,0,0,0,0,1617982136.947142,13.55242156982422,3.714023590087891,-40.59616088867188,282.2973937988281,289.3184814453125,13.62473583221436,26390.08720275,-0.0367889404296875,-0.1446533203125,-1.078659057617188,26390.05731875,0.02299266681075096,0.1415555328130722,-0.08235213160514832,26390.06940375,89.66525268554688,21.54087829589844,-27.89212036132812,26390.07101475,0.666259006384516,-0.0482377963980172,0.1124850851980445,-0.06230525299906731,-0.02607649378478527,-0.07331988960504532,0.009889364242553711,-0.01150079071521759,-0.07383608818054199,2,0.06098075194240828,-0.004378298474545184,0.325108905694541,0.9436983711339051,-0.04791435599327087,-0.1122480258345604,-0.9925243854522705,13.51419830322266,3.695684432983398,-40.53391647338867,-1,2,26388.846207625,4,2,1617982135.761883,0,0,0,0,0,0,0,0,0,26386.853398,0,-0.3170776,97.30171,0,0,0,0,1617982136.594888,1,1617982136.009866,1,0.78,1617982136.946465,-28.13221,-38.84588,0
1617982137.01694,24,0,0,0,0,0,0,0,0,0,1617982137.006981,13.23253631591797,4.067556381225586,-40.92916107177734,282.3641052246094,289.3851928710938,13.62484645843506,26390.14697175,-0.0577392578125,-0.1226043701171875,-0.9669952392578125,26390.12704875,-0.1082542985677719,-0.2205816358327866,-0.006246177945286036,26390.12938775,89.42774963378906,21.92616271972656,-28.31986999511719,26390.13078375,0.6644303210682261,-0.06042824284840476,0.1058336776831489,-0.1135192215442657,-0.2000402808189392,0.0009446789044886827,0.006922375410795212,-0.01489299535751343,-0.01764881610870361,2,0.05981597339747893,-0.01127550400999522,0.3240222044076331,0.9440893417110167,-0.06005357205867767,-0.1056362167000771,-0.9925898313522339,13.3575439453125,4.00568962097168,-40.92898941040039,-1,2,26388.846207625,4,2,1617982135.761883,0,0,0,0,0,0,0,0,0,26386.853398,0,-0.3170776,97.30171,1617982137.011228,1681917671,1683868891,0,1617982136.594888,1,1617982136.009866,1,0.78,1617982137.012192,-28.13221,-40.78163,0
1617982137.076484,25,0,0,0,0,0,0,0,0,0,1617982137.066838,12.92033386230469,4.089742660522461,-40.94468688964844,282.2098388671875,289.2309265136719,13.62495803833008,26390.20674075,-0.046539306640625,-0.1116790771484375,-1.000640869140625,26390.19677875,0.1340110599994659,0.1476168930530548,0.04290752112865448,26390.18936775,89.01206970214844,21.99900817871094,-28.31735229492188,26390.19055275,0.6666373001023518,-0.05759780393252064,0.1079453378783286,0.125384122133255,0.1676149964332581,0.04673417657613754,-0.004277363419532776,-0.003348186612129211,0.0343400239944458,2,0.06036363438634215,-0.009527547247456993,0.3251010155172695,0.9437027635626433,-0.05723090469837189,-0.1077358275651932,-0.9925309419631958,12.90438079833984,4.150955200195312,-40.96831512451172,-1,2,26388.846207625,4,2,1617982135.761883,0,0,0,0,0,0,0,0,0,26386.853398,0,-0.3170776,97.30171,1617982137.011228,1681917671,1683868891,0,1617982136.594888,1,1617982136.009866,1,0.78,1617982137.04595,-28.13221,-41.32306,0
1617982137.136408,26,0,0,0,0,0,0,0,0,0,1617982137.126533,13.13359069824219,3.885854721069336,-40.92565155029297,282.0722351074219,289.0933227539062,13.62504863739014,26390.26650975,-0.047637939453125,-0.1167755126953125,-0.976470947265625,26390.26650975,-0.1016294211149216,-0.07347341626882553,0.05307040736079216,26390.24934975,89.32876586914062,21.71580505371094,-28.24961853027344,26390.25032175,0.6691320214197589,-0.05717546047153797,0.1107430867100681,-0.09662725031375885,-0.09579127281904221,0.04214669391512871,0.0133218839764595,-0.003435805439949036,-0.004057168960571289,2,0.06162464890008564,-0.008792523831685661,0.3262278377352456,0.9432394356647121,-0.05679426342248917,-0.1105168685317039,-0.9922502040863037,13.22173309326172,3.822111129760742,-40.87378311157227,-1,2,26388.846207625,4,2,1617982135.761883,0,0,0,0,0,0,0,0,0,26387.799693,0,-0.359375,97.30222,1617982137.011228,1681917671,1683868891,0,1617982137.115409,1,1617982136.009866,1,0.78,1617982137.113344,-28.13221,-42.96332,0
1617982137.196499,27,0,0,0,0,0,0,0,0,0,1617982137.186217,12.85732269287109,4.280799865722656,-41.27338409423828,281.8446960449219,288.8657836914062,13.6251335144043,26390.32627875,-0.06353759765625,-0.09051513671875,-0.989288330078125,26390.30137475,-0.009783654473721981,0.05700442939996719,0.07577785104513168,26390.30933975,88.93348693847656,22.12440490722656,-28.52680969238281,26390.31009075,0.6727521267240875,-0.05895900912034631,0.1062914764900328,0.02315276302397251,0.08593016117811203,0.0804959237575531,-0.001542672514915466,0.007534891366958618,0.02442795038223267,2,0.05983699498710145,-0.0102582175068497,0.3279811746824643,0.9427315769452456,-0.0585923083126545,-0.1060914471745491,-0.9926286339759827,12.85757446289062,4.213300704956055,-41.16719818115234,-1,2,26388.846207625,4,2,1617982135.761883,0,0,0,0,0,0,0,0,0,26387.799693,0,-0.359375,97.30222,1617982137.011228,1681917671,1683868891,0,1617982137.115409,1,1617982136.009866,1,0.78,1617982137.17976,-28.13221,-44.62997,0
1617982137.257212,28,0,0,0,0,0,0,0,0,0,1617982137.246153,13.14089965820312,4.00279426574707,-41.26400375366211,281.7402038574219,288.7612915039062,13.62521553039551,26390.386046375,-0.0635986328125,-0.10498046875,-0.9959564208984375,26390.371104375,-0.01553794648498297,0.05941911786794662,-0.000600809114985168,26390.369324375,89.26571655273438,21.87040710449219,-28.6143798828125,26390.369858375,0.6753247792327275,-0.05287876551807049,0.1101686594469151,-0.0227388683706522,0.05588382109999657,0.001747821341268718,-0.01811458170413971,0.01425803452730179,-0.001775443553924561,2,0.06067396717003361,-0.0066727900751011,0.3292909916488413,0.9422535233447127,-0.05253370106220245,-0.1099459379911423,-0.9925482869148254,13.14089965820312,4.00279426574707,-41.26400375366211,-1,2,26388.846207625,4,2,1617982135.761883,0,0,0,0,0,0,0,0,0,26387.799693,0,-0.359375,97.30222,1617982137.011228,1681917671,1683868891,0,1617982137.115409,1,1617982136.009866,1,0.78,1617982137.246386,-28.13221,-45.40747,0
1617982137.31558,29,0,0,0,0,0,0,0,0,0,1617982137.30599,13.28340148925781,4.097040176391602,-41.27983856201172,281.8289184570312,288.8500061035156,13.62529754638672,26390.445815375,-0.0645904541015625,-0.0920867919921875,-1.002639770507812,26390.440834375,0.01538108661770821,0.04790334403514862,-0.0700714960694313,26390.429311375,89.41703796386719,22.00419616699219,-28.64051818847656,26390.429627375,0.6743871884956706,-0.05141592817319473,0.1063784693408873,-0.01635006628930569,0.04364508017897606,-0.05681129544973373,-0.02058312296867371,0.0211254209280014,-0.0006344914436340332,2,0.05864599562365296,-0.006640272027783719,0.3289733356483913,0.9424930894916204,-0.05110275745391846,-0.1061779484152794,-0.9930331110954285,13.20551300048828,4.064218521118164,-41.38821792602539,-1,2,26388.846207625,4,2,1617982135.761883,0,0,0,0,0,0,0,0,0,26387.799693,0,-0.359375,97.30222,1617982137.011228,1681917671,1683868891,0,1617982137.115409,1,1617982136.009866,1,0.78,1617982137.313016,-28.13221,-45.29253,0
1617982137.376723,30,0,0,0,0,0,0,0,0,0,1617982137.365921,13.37345886230469,4.153881072998047,-41.25157165527344,282.0657958984375,289.0868835449219,13.62537956237793,26390.505584375,-0.04388427734375,-0.124908447265625,-1.003204345703125,26390.475700375,-0.02167014218866825,0.04594432190060616,-0.07518396526575089,26390.489293375,89.48721313476562,22.05195617675781,-28.60499572753906,26390.489396375,0.6702250978749019,-0.04948621455816631,0.1052752689145272,-0.05397749692201614,0.03074016235768795,-0.06215769797563553,-0.002382632344961166,-0.01155728846788406,-0.007623434066772461,2,0.05779671260907232,-0.006034050324361696,0.3270901334749482,0.943204807618841,-0.0491921603679657,-0.1050809174776077,-0.9932462573051453,13.34552764892578,4.143886566162109,-41.378173828125,-1,2,26388.846207625,4,2,1617982135.761883,0,0,0,0,0,0,0,0,0,26387.799693,0,-0.359375,97.30222,1617982137.011228,1681917671,1683868891,0,1617982137.115409,1,1617982136.009866,1,0.78,1617982137.345756,-28.13221,-42.35418,0
1617982137.628959,31,0,0,0,0,0,0,0,0,0,1617982137.624881,13.83067321777344,4.574140548706055,-40.08494186401367,282.0528869628906,289.073974609375,13.62574481964111,26390.539203375,-0.050384521484375,-0.135833740234375,-0.9799041748046875,26390.510565375,-0.04607934504747391,0.0235252995043993,-0.03708265349268913,26390.489293375,89.48721313476562,22.05195617675781,-28.60499572753906,26390.489396375,0.6702250978749019,-0.04948621455816631,0.1052752689145272,-0.05397749692201614,0.03074016235768795,-0.06215769797563553,-0.002382632344961166,-0.01155728846788406,-0.007623434066772461,2,0.05779671260907232,-0.006034050324361696,0.3270901334749482,0.943204807618841,-0.0491921603679657,-0.1050809174776077,-0.9932462573051453,13.34552764892578,4.143886566162109,-41.378173828125,-1,2,26388.846207625,4,2,1617982135.761883,0,0,0,0,0,0,0,0,0,26387.799693,0,-0.359375,97.30222,1617982137.011228,1681917671,1683868891,0,1617982137.391617,1,1617982136.009866,1,0.78,1617982137.627775,-34.26227,-44.76511,0
1617982137.62953,32,0,0,0,0,0,0,0,0,0,1617982137.624881,13.83067321777344,4.574140548706055,-40.08494186401367,282.0528869628906,289.073974609375,13.62574481964111,26390.572824375,-0.0550689697265625,-0.123046875,-1.008834838867188,26390.544185375,0.01977823115885258,0.02789714559912682,-0.01631985045969486,26390.549272375,89.94625854492188,21.64796447753906,-26.70773315429688,26390.549165375,0.6688609911676511,-0.04502223632510293,0.1027965739892333,-0.005817350000143051,0.001042658928781748,-0.02824009023606777,0.009140074253082275,-0.0131223201751709,-0.0737612247467041,2,0.05589548510186905,-0.004375246031054561,0.3266223763905506,0.9434906210906915,-0.04476943984627724,-0.102615624666214,-0.9937130808830261,13.71099853515625,3.867166519165039,-39.88285446166992,-1,2,26388.846207625,4,2,1617982135.761883,0,0,0,0,0,0,0,0,0,26387.799693,0,-0.359375,97.30222,1617982137.011228,1681917671,1683868891,0,1617982137.391617,1,1617982136.009866,1,0.78,1617982137.627775,-34.26227,-44.76511,0
1617982137.629723,33,0,0,0,0,0,0,0,0,0,1617982137.624881,13.83067321777344,4.574140548706055,-40.08494186401367,282.0528869628906,289.073974609375,13.62574481964111,26390.606444375,-0.0394134521484375,-0.11163330078125,-1.014053344726562,26390.577804375,-0.06058238819241524,0.0146295428276062,-0.0170612744987011,26390.549272375,89.94625854492188,21.64796447753906,-26.70773315429688,26390.549165375,0.6688609911676511,-0.04502223632510293,0.1027965739892333,-0.005817350000143051,0.001042658928781748,-0.02824009023606777,0.009140074253082275,-0.0131223201751709,-0.0737612247467041,2,0.05589548510186905,-0.004375246031054561,0.3266223763905506,0.9434906210906915,-0.04476943984627724,-0.102615624666214,-0.9937130808830261,13.71099853515625,3.867166519165039,-39.88285446166992,-1,2,26388.846207625,4,2,1617982135.761883,0,0,0,0,0,0,0,0,0,26387.799693,0,-0.359375,97.30222,1617982137.011228,1681917671,1683868891,0,1617982137.391617,1,1617982136.009866,1,0.78,1617982137.627775,-34.26227,-44.76511,0
1617982137.629934,34,0,0,0,0,0,0,0,0,0,1617982137.624881,13.83067321777344,4.574140548706055,-40.08494186401367,282.0528869628906,289.073974609375,13.62574481964111,26390.640065375,-0.0568084716796875,-0.09722900390625,-0.9882659912109375,26390.611425375,-0.0213023591786623,-0.01210060529410839,0.02430400811135769,26390.609253375,89.9351806640625,21.88839721679688,-27.14570617675781,26390.608934375,0.6682088601821471,-0.04608490122676407,0.1009668202513104,-0.03582834452390671,-0.01994497515261173,0.0247554536908865,0.008068379014730453,-0.01105160266160965,-0.02384930849075317,2,0.05520484453132512,-0.005195388394954696,0.3263201397941519,0.9436316743036263,-0.04583397135138512,-0.1007953584194183,-0.9938508868217468,13.64130401611328,4.251131057739258,-40.83307647705078,-1,2,26388.846207625,4,2,1617982135.761883,0,0,0,0,0,0,0,0,0,26387.799693,0,-0.359375,97.30222,1617982137.011228,1681917671,1683868891,0,1617982137.391617,1,1617982136.009866,1,0.78,1617982137.627775,-34.26227,-44.76511,0
1617982137.630124,35,0,0,0,0,0,0,0,0,0,1617982137.624881,13.83067321777344,4.574140548706055,-40.08494186401367,282.0528869628906,289.073974609375,13.62574481964111,26390.673684375,-0.0525054931640625,-0.1045684814453125,-1.002532958984375,26390.645045375,-0.06530017405748367,0.0437682531774044,0.01394457742571831,26390.669234375,89.76272583007812,22.383056640625,-28.35295104980469,26390.668703375,0.669436097684731,-0.04474741202007717,0.09861761754693196,-0.04043257981538773,0.04712057113647461,0.02585629001259804,-0.009653657674789429,-0.004142284393310547,-0.001063644886016846,2,0.05388207236500036,-0.004917118001111692,0.3269799855232494,0.9434811921590731,-0.04451513662934303,-0.09845784306526184,-0.9941450953483582,13.6768798828125,4.496541976928711,-40.74460601806641,-1,2,26388.846207625,4,2,1617982135.761883,0,0,0,0,0,0,0,0,0,26387.799693,0,-0.359375,97.30222,1617982137.011228,1681917671,1683868891,0,1617982137.391617,1,1617982136.009866,1,0.78,1617982137.627775,-34.26227,-44.76511,0
1617982137.63029,36,0,0,0,0,0,0,0,0,0,1617982137.624881,13.83067321777344,4.574140548706055,-40.08494186401367,282.0528869628906,289.073974609375,13.62574481964111,26390.707303375,-0.054779052734375,-0.099822998046875,-0.9986419677734375,26390.678664375,-0.003575559938326478,0.03381628543138504,0.02268853411078453,26390.669234375,89.76272583007812,22.383056640625,-28.35295104980469,26390.668703375,0.669436097684731,-0.04474741202007717,0.09861761754693196,-0.04043257981538773,0.04712057113647461,0.02585629001259804,-0.009653657674789429,-0.004142284393310547,-0.001063644886016846,2,0.05388207236500036,-0.004917118001111692,0.3269799855232494,0.9434811921590731,-0.04451513662934303,-0.09845784306526184,-0.9941450953483582,13.6768798828125,4.496541976928711,-40.74460601806641,-1,2,26388.846207625,4,2,1617982135.761883,0,0,0,0,0,0,0,0,0,26387.799693,0,-0.359375,97.30222,1617982137.011228,1681917671,1683868891,0,1617982137.391617,1,1617982136.009866,1,0.78,1617982137.627775,-34.26227,-44.76511,0
1617982137.630472,37,0,0,0,0,0,0,0,0,0,1617982137.624881,13.83067321777344,4.574140548706055,-40.08494186401367,282.0528869628906,289.073974609375,13.62574481964111,26390.740924375,-0.058746337890625,-0.119293212890625,-0.985992431640625,26390.712285375,-0.07334531843662262,-0.03257232531905174,-0.01600266806781292,26390.729209375,90.04685974121094,22.209228515625,-27.33470153808594,26390.728471375,0.669633719346048,-0.04543937607688566,0.09568231183256853,-0.150773897767067,-0.03814420104026794,-0.003771074116230011,-0.01038714498281479,-0.01246535778045654,0.00271451473236084,2,0.05261208360644569,-0.005721311840147694,0.3271094018757754,0.9435035138261809,-0.04521597176790237,-0.09553638100624084,-0.9943984746932983,13.79221343994141,4.518529891967773,-40.58185958862305,-1,2,26388.846207625,4,2,1617982135.761883,0,0,0,0,0,0,0,0,0,26387.799693,0,-0.359375,97.30222,1617982137.011228,1681917671,1683868891,0,1617982137.391617,1,1617982136.009866,1,0.78,1617982137.627775,-34.26227,-44.76511,0
1617982137.644346,38,0,0,0,0,0,0,0,0,0,1617982137.624881,13.83067321777344,4.574140548706055,-40.08494186401367,282.0528869628906,289.073974609375,13.62574481964111,26390.774544375,-0.060943603515625,-0.10821533203125,-0.9864044189453125,26390.745904375,-0.1385525465011597,0.01330994628369808,0.01638483256101608,26390.729209375,90.04685974121094,22.209228515625,-27.33470153808594,26390.728471375,0.669633719346048,-0.04543937607688566,0.09568231183256853,-0.150773897767067,-0.03814420104026794,-0.003771074116230011,-0.01038714498281479,-0.01246535778045654,0.00271451473236084,2,0.05261208360644569,-0.005721311840147694,0.3271094018757754,0.9435035138261809,-0.04521597176790237,-0.09553638100624084,-0.9943984746932983,13.79221343994141,4.518529891967773,-40.58185958862305,-1,2,26388.846207625,4,2,1617982135.761883,0,0,0,0,0,0,0,0,0,26387.799693,0,-0.359375,97.30222,1617982137.011228,1681917671,1683868891,0,1617982137.391617,1,1617982136.009866,1,0.78,1617982137.627775,-34.26227,-44.76511,0
1617982137.674468,39,0,0,0,0,0,0,0,0,0,1617982137.664703,13.72109222412109,4.936275482177734,-40.7105712890625,282.015869140625,289.0369567871094,13.62580108642578,26390.808163375,-0.050750732421875,-0.1240386962890625,-0.9973297119140625,26390.779525375,-0.01138394791632891,0.1295590549707413,0.01209314819425344,26390.789199375,89.81736755371094,22.84663391113281,-28.17369079589844,26390.788240375,0.6704349911528716,-0.04276578282531855,0.09027995204977647,0.005628160201013088,0.1317008882761002,0.0104468297213316,-0.0183040164411068,-0.01821058988571167,0.003088831901550293,2,0.04962993808262964,-0.005329120425242868,0.3276532056232396,0.9434786248017414,-0.04257863759994507,-0.09015736728906631,-0.9950169324874878,13.73709869384766,4.895401000976562,-40.56145858764648,-1,2,26388.846207625,4,2,1617982135.761883,0,0,0,0,0,0,0,0,0,26387.799693,0,-0.359375,97.30222,1617982137.011228,1681917671,1683868891,0,1617982137.391617,1,1617982136.009866,1,0.78,1617982137.64595,-34.81955,-45.33812,0
1617982137.71408,40,0,0,0,0,0,0,0,0,0,1617982137.704487,13.80512237548828,5.147104263305664,-41.42292785644531,282.0206604003906,289.041748046875,13.62585544586182,26390.841784375,-0.0547943115234375,-0.1316375732421875,-1.002029418945312,26390.813145375,-0.006155097857117653,0.1063530743122101,0.005387574899941683,26390.789199375,89.81736755371094,22.84663391113281,-28.17369079589844,26390.788240375,0.6704349911528716,-0.04276578282531855,0.09027995204977647,0.005628160201013088,0.1317008882761002,0.0104468297213316,-0.0183040164411068,-0.01821058988571167,0.003088831901550293,2,0.04962993808262964,-0.005329120425242868,0.3276532056232396,0.9434786248017414,-0.04257863759994507,-0.09015736728906631,-0.9950169324874878,13.73709869384766,4.895401000976562,-40.56145858764648,-1,2,26388.846207625,4,2,1617982135.761883,0,0,0,0,0,0,0,0,0,26387.799693,0,-0.359375,97.30222,1617982137.011228,1681917671,1683868891,0,1617982137.391617,1,1617982136.009866,1,0.78,1617982137.713187,-36.49139,-46.97343,0
1617982137.746599,41,0,0,0,0,0,0,0,0,0,1617982137.744555,13.88519287109375,5.270772933959961,-41.11415100097656,281.9875183105469,289.0086059570312,13.62591075897217,26390.875403375,-0.0314178466796875,-0.12469482421875,-0.99041748046875,26390.846764375,-0.1414524614810944,0.02786252461373806,-0.0001440770138287917,26390.849183375,89.98974609375,23.04415893554688,-28.66520690917969,26390.848009375,0.6703533173736008,-0.03922093505856349,0.08866943165353317,-0.1569766402244568,0.02573157660663128,0.005817809142172337,-0.01421168074011803,-0.04453390091657639,-0.004297852516174316,2,0.04828966107659113,-0.003924101864904959,0.3277288691729834,0.9435287776793588,-0.03905683755874634,-0.088553287088871,-0.9953054189682007,13.87003326416016,5.184171676635742,-41.36603164672852,-1,2,26388.846207625,4,2,1617982135.761883,0,0,0,0,0,0,0,0,0,26387.799693,0,-0.359375,97.30222,1617982137.011228,1681917671,1683868891,0,1617982137.391617,1,1617982136.009866,1,0.78,1617982137.713187,-36.49139,-46.97343,0
1617982137.784036,42,0,0,0,0,0,0,0,0,0,1617982137.764531,13.78632354736328,5.698835372924805,-41.57608413696289,281.9284973144531,288.9495849609375,13.62593841552734,26390.909024375,-0.04425048828125,-0.1182403564453125,-0.967529296875,26390.880385375,-0.1814084053039551,-0.1033689975738525,0.04870202392339706,26390.909165375,89.69979858398438,23.73417663574219,-29.03413391113281,26390.907778375,0.6726940997392318,-0.0451839992843184,0.07887686023652579,-0.2439291775226593,-0.1280155181884766,0.08154860138893127,-0.0009313710033893585,-0.04069650918245316,0.02834409475326538,2,0.04465926289661041,-0.008298093121994771,0.3288594418398065,0.9432859304900731,-0.0450281910598278,-0.07879509776830673,-0.9958733916282654,13.75990295410156,5.763387680053711,-41.66654205322266,-1,2,26388.846207625,4,2,1617982135.761883,0,0,0,0,0,0,0,0,0,26387.799693,0,-0.359375,97.30222,1617982137.011228,1681917671,1683868891,0,1617982137.391617,1,1617982136.009866,1,0.78,1617982137.78073,-38.16323,-46.98994,0
1617982137.814128,43,0,0,0,0,0,0,0,0,0,1617982137.804601,13.56468963623047,6.017181396484375,-41.60358810424805,281.7279968261719,288.7490844726562,13.6259937286377,26390.942644375,-0.033203125,-0.120391845703125,-0.9479522705078125,26390.947624375,-0.217516615986824,-0.06056640669703484,0.1696175336837769,26390.909165375,89.69979858398438,23.73417663574219,-29.03413391113281,26390.907778375,0.6726940997392318,-0.0451839992843184,0.07887686023652579,-0.2439291775226593,-0.1280155181884766,0.08154860138893127,-0.0009313710033893585,-0.04069650918245316,0.02834409475326538,2,0.04465926289661041,-0.008298093121994771,0.3288594418398065,0.9432859304900731,-0.0450281910598278,-0.07879509776830673,-0.9958733916282654,13.75990295410156,5.763387680053711,-41.66654205322266,-1,2,26388.846207625,4,2,1617982135.761883,0,0,0,0,0,0,0,0,0,26387.799693,0,-0.359375,97.30222,1617982137.011228,1681917671,1683868891,0,1617982137.391617,1,1617982136.009866,1,0.78,1617982137.78073,-38.16323,-46.98994,0
1617982137.843692,44,0,0,0,0,0,0,0,0,0,1617982137.824221,13.48385620117188,6.137542724609375,-41.66488647460938,281.5490112304688,288.5700988769531,13.62602138519287,26390.976263375,-0.0325775146484375,-0.0965728759765625,-0.9548797607421875,26390.947624375,-0.217516615986824,-0.06056640669703484,0.1696175336837769,26390.969150375,89.41548156738281,24.1036376953125,-29.20431518554688,26390.967547375,0.6804567279057359,-0.05100215345330271,0.06773381224723062,-0.1728425174951553,-0.03423481807112694,0.1949863135814667,0.01935365796089172,-0.04047228395938873,0.04806065559387207,2,0.04041308709916619,-0.01272729582360304,0.3325886680006387,0.9421198182303669,-0.05086314305663109,-0.06768203526735306,-0.9964095950126648,13.45780181884766,6.143081665039062,-41.66260528564453,-1,2,26388.846207625,4,2,1617982135.761883,0,0,0,0,0,0,0,0,0,26387.799693,0,-0.359375,97.30222,1617982137.011228,1681917671,1683868891,0,1617982137.391617,1,1617982136.009866,1,0.78,1617982137.815793,-38.7205,-47.22392,0
1617982137.883906,45,0,0,0,0,0,0,0,0,0,1617982137.864311,13.25632476806641,6.334203720092773,-41.83343887329102,281.1344604492188,288.1555480957031,13.62608814239502,26391.009884375,-0.0437469482421875,-0.1031646728515625,-0.9538421630859375,26391.014864375,-0.07984583079814911,0.00763048930093646,0.1711419224739075,26390.969150375,89.41548156738281,24.1036376953125,-29.20431518554688,26390.967547375,0.6804567279057359,-0.05100215345330271,0.06773381224723062,-0.1728425174951553,-0.03423481807112694,0.1949863135814667,0.01935365796089172,-0.04047228395938873,0.04806065559387207,2,0.04041308709916619,-0.01272729582360304,0.3325886680006387,0.9421198182303669,-0.05086314305663109,-0.06768203526735306,-0.9964095950126648,13.45780181884766,6.143081665039062,-41.66260528564453,-1,2,26388.846207625,4,2,1617982135.761883,0,0,0,0,0,0,0,0,0,26387.799693,0,-0.359375,97.30222,1617982137.011228,1681917671,1683868891,0,1617982137.391617,1,1617982136.009866,1,0.78,1617982137.881402,-39.41458,-47.64369,0
1617982137.913611,46,0,0,0,0,0,0,0,0,0,1617982137.904184,13.25615692138672,6.430078506469727,-41.74813461303711,280.7357788085938,287.7568664550781,13.62616443634033,26391.043504375,-0.0347747802734375,-0.1233367919921875,-0.975555419921875,26391.014864375,-0.07984583079814911,0.00763048930093646,0.1711419224739075,26391.029128375,89.35536193847656,24.33670043945312,-29.13871765136719,26391.027316375,0.691013637074951,-0.05217900786549046,0.06434476746339855,-0.1318178772926331,-0.007852869108319283,0.1834506690502167,0.01139790192246437,-0.05058306455612183,0.02959245443344116,2,0.03908584578091429,-0.01364188217823785,0.3375935666703395,0.9403813317278134,-0.05204740166664124,-0.06430037319660187,-0.9965723752975464,13.26479339599609,6.398599624633789,-41.78133773803711,-1,2,26388.846207625,4,2,1617982135.761883,0,0,0,0,0,0,0,0,0,26387.799693,0,-0.359375,97.30222,1617982137.011228,1681917671,1683868891,0,1617982137.391617,1,1617982136.009866,1,0.78,1617982137.881402,-39.41458,-47.64369,0
1617982137.943562,47,0,0,0,0,0,0,0,0,0,1617982137.923816,13.27060699462891,6.409542083740234,-41.68801116943359,280.4758605957031,287.4969482421875,13.6262035369873,26391.077123375,-0.037628173828125,-0.0709991455078125,-1.011703491210938,26391.048485375,-0.1907009780406952,0.01438932586461306,0.2420216798782349,26391.029128375,89.35536193847656,24.33670043945312,-29.13871765136719,26391.027316375,0.691013637074951,-0.05217900786549046,0.06434476746339855,-0.1318178772926331,-0.007852869108319283,0.1834506690502167,0.01139790192246437,-0.05058306455612183,0.02959245443344116,2,0.03908584578091429,-0.01364188217823785,0.3375935666703395,0.9403813317278134,-0.05204740166664124,-0.06430037319660187,-0.9965723752975464,13.26479339599609,6.398599624633789,-41.78133773803711,-1,2,26388.846207625,4,2,1617982135.761883,0,0,0,0,0,0,0,0,0,26387.799693,0,-0.359375,97.30222,1617982137.011228,1681917671,1683868891,0,1617982137.391617,1,1617982136.009866,1,0.78,1617982137.916162,-39.41458,-44.33684,0
1617982137.994616,48,0,0,0,0,0,0,0,0,0,1617982137.983646,13.27645111083984,6.803159713745117,-41.6588249206543,279.7006530761719,286.7217407226562,13.62636852264404,26391.110744375,-0.04290771484375,-0.0509490966796875,-1.026473999023438,26391.082104375,-0.2147519886493683,-0.03884007409214973,0.2453242689371109,26391.089109375,89.42996215820312,24.60406494140625,-29.01664733886719,26391.087084375,0.7048761612402508,-0.05229612877220948,0.05289685350802004,-0.2292590737342834,-0.06361135095357895,0.2357956171035767,0.01469298452138901,-0.006118312478065491,-0.02832239866256714,2,0.03383315128270207,-0.01540399777539951,0.3442994274987884,0.9381237268328612,-0.05219918116927147,-0.0528721883893013,-0.9972360730171204,13.35250091552734,6.539945602416992,-41.65254974365234,-1,2,26388.846207625,4,2,1617982135.761883,0,0,0,0,0,0,0,0,0,26387.799693,0,-0.359375,97.30222,1617982137.011228,1681917671,1683868891,0,1617982137.391617,1,1617982136.009866,1,0.78,1617982137.982169,-39.41458,-45.15697,0
1617982138.013261,49,0,0,0,0,0,0,0,0,0,1617982138.003778,13.25953674316406,6.815919876098633,-41.70254898071289,279.5049743652344,286.5260620117188,13.62642288208008,26391.144363375,-0.058380126953125,-0.0428619384765625,-0.9976806640625,26391.115724375,-0.2335227429866791,-0.1062739714980125,0.199362114071846,26391.089109375,89.42996215820312,24.60406494140625,-29.01664733886719,26391.087084375,0.7048761612402508,-0.05229612877220948,0.05289685350802004,-0.2292590737342834,-0.06361135095357895,0.2357956171035767,0.01469298452138901,-0.006118312478065491,-0.02832239866256714,2,0.03383315128270207,-0.01540399777539951,0.3442994274987884,0.9381237268328612,-0.05219918116927147,-0.0528721883893013,-0.9972360730171204,13.35250091552734,6.539945602416992,-41.65254974365234,-1,2,26388.846207625,4,2,1617982135.761883,0,0,0,0,0,0,0,0,0,26387.799693,0,-0.359375,97.30222,1617982137.011228,1681917671,1683868891,0,1617982137.391617,1,1617982136.009866,1,0.78,1617982138.012067,-39.41458,-45.46586,0
1617982138.056393,50,0,0,0,0,0,0,0,0,0,1617982138.043562,13.12252044677734,7.067804336547852,-41.69482803344727,279.2225036621094,286.2435913085938,13.62653255462646,26391.177984375,-0.062164306640625,-0.0476531982421875,-1.020278930664062,26391.149345375,-0.2117452770471573,0.02371784672141075,0.1469526886940002,26391.149094375,89.23861694335938,24.83935546875,-29.12353515625,26391.146853375,0.7158284677743431,-0.05719974955232617,0.03765996394595202,-0.2311648726463318,0.0192069411277771,0.150864377617836,-0.002030391246080399,-0.004447959363460541,0.0008762478828430176,2,0.02764446524461489,-0.02018562924480694,0.3496117251413586,0.9362692934773854,-0.05712802708148956,-0.03765106201171875,-0.9976566433906555,13.19676208496094,6.843944549560547,-41.68651962280273,-1,2,26388.846207625,4,2,1617982135.761883,0,0,0,0,0,0,0,0,0,26388.746106,0,-0.3858032,97.30253,1617982137.011228,1681917671,1683868891,0,1617982137.391617,1,1617982136.009866,1,0.78,1617982138.012067,-39.41458,-45.46586,0
1617982138.082955,51,0,0,0,0,0,0,0,0,0,1617982138.063264,13.06632995605469,7.247589111328125,-41.84479904174805,279.1272583007812,286.1483459472656,13.6265869140625,26391.211604375,-0.069610595703125,-0.0885009765625,-0.97711181640625,26391.182964375,-0.08157102763652802,-0.02792803756892681,0.085776686668396,26391.209075375,89.13655090332031,25.334228515625,-29.09786987304688,26391.206622375,0.7217976278106625,-0.05794302005575314,0.02937694923586527,-0.1355672180652618,0.06293513625860214,0.09668725728988647,-0.01038229838013649,-0.04866074398159981,0.01588112115859985,2,0.02396372749022924,-0.02191408284933357,0.3525309607194376,0.9352365859413448,-0.05788561701774597,-0.02937272377312183,-0.9978910088539124,13.02634429931641,7.344757080078125,-41.84142684936523,-1,2,26388.846207625,4,2,1617982135.761883,0,0,0,0,0,0,0,0,0,26388.746106,0,-0.3858032,97.30253,1617982137.011228,1681917671,1683868891,0,1617982137.391617,1,1617982136.009866,1,0.78,1617982138.082078,-39.41458,-47.15641,0
1617982138.11322,52,0,0,0,0,0,0,0,0,0,1617982138.103355,13.10579681396484,7.410860061645508,-41.63614654541016,278.8770446777344,285.8981323242188,13.62668323516846,26391.245223375,-0.0459136962890625,-0.07659912109375,-1.023178100585938,26391.216584375,-0.1385826468467712,0.1211490631103516,0.1120040342211723,26391.209075375,89.13655090332031,25.334228515625,-29.09786987304688,26391.206622375,0.7217976278106625,-0.05794302005575314,0.02937694923586527,-0.1355672180652618,0.06293513625860214,0.09668725728988647,-0.01038229838013649,-0.04866074398159981,0.01588112115859985,2,0.02396372749022924,-0.02191408284933357,0.3525309607194376,0.9352365859413448,-0.05788561701774597,-0.02937272377312183,-0.9978910088539124,13.02634429931641,7.344757080078125,-41.84142684936523,-1,2,26388.846207625,4,2,1617982135.761883,0,0,0,0,0,0,0,0,0,26388.746106,0,-0.3858032,97.30253,1617982137.011228,1681917671,1683868891,0,1617982137.391617,1,1617982136.009866,1,0.78,1617982138.082078,-39.41458,-47.15641,0
1617982138.152693,53,0,0,0,0,0,0,0,0,0,1617982138.143168,13.30451965332031,7.639122009277344,-41.62318420410156,278.5609130859375,285.5820007324219,13.62674236297607,26391.278844375,-0.0233612060546875,-0.0411529541015625,-1.070220947265625,26391.250204375,-0.1044254750013351,0.1274202764034271,0.1530228406190872,26391.269051375,89.40533447265625,25.52452087402344,-29.03831481933594,26391.266391375,0.7296439937972279,-0.05151419022144103,0.02196541649167679,-0.06771185994148254,-0.004950191359966993,0.1338406503200531,0.01790956407785416,-0.03630968183279037,-0.06545597314834595,2,0.01944441925051284,-0.0201407736851802,0.3563789152811397,0.9339220655925928,-0.05147898942232132,-0.02196365036070347,-0.9984325170516968,13.30911254882812,7.660989761352539,-41.59468460083008,-1,2,26388.846207625,4,2,1617982135.761883,0,0,0,0,0,0,0,0,0,26388.746106,0,-0.3858032,97.30253,1617982137.011228,1681917671,1683868891,0,1617982137.391617,1,1617982136.009866,1,0.78,1617982138.148173,-39.41458,-48.18408,0
1617982138.182554,54,0,0,0,0,0,0,0,0,0,1617982138.16301,13.33472442626953,7.67730712890625,-41.61598587036133,278.4713439941406,285.492431640625,13.62677669525146,26391.312463375,-0.0421295166015625,-0.0736846923828125,-1.003631591796875,26391.283824375,-0.05513995140790939,-0.1004768088459969,0.0831364318728447,26391.269051375,89.40533447265625,25.52452087402344,-29.03831481933594,26391.266391375,0.7296439937972279,-0.05151419022144103,0.02196541649167679,-0.06771185994148254,-0.004950191359966993,0.1338406503200531,0.01790956407785416,-0.03630968183279037,-0.06545597314834595,2,0.01944441925051284,-0.0201407736851802,0.3563789152811397,0.9339220655925928,-0.05147898942232132,-0.02196365036070347,-0.9984325170516968,13.30911254882812,7.660989761352539,-41.59468460083008,-1,2,26388.846207625,4,2,1617982135.761883,0,0,0,0,0,0,0,0,0,26388.746106,0,-0.3858032,97.30253,1617982137.011228,1681917671,1683868891,0,1617982137.391617,1,1617982136.009866,1,0.78,1617982138.179598,-39.41458,-48.42252,0
1617982138.212375,55,0,0,0,0,0,0,0,0,0,1617982138.202902,13.19313049316406,7.837892532348633,-41.65179061889648,278.3340454101562,285.3551330566406,13.62684631347656,26391.346084375,-0.0392303466796875,-0.067626953125,-1.018814086914062,26391.317445375,-0.1293848901987076,-0.04395733773708344,0.06929465383291245,26391.329032375,89.30178833007812,25.75566101074219,-29.07283020019531,26391.326160375,0.7341477312574541,-0.05681803827172596,0.01941944969186148,-0.1406751424074173,-0.0080769257619977,0.07477951794862747,0.01539484038949013,-0.06119396910071373,0.005781710147857666,2,0.01925281462355969,-0.02302841358389899,0.3584665861441313,0.9330600086216609,-0.05677676573395729,-0.01941822841763496,-0.9981980323791504,13.17800903320312,7.778396606445312,-41.60843658447266,-1,2,26388.846207625,4,2,1617982135.761883,0,0,0,0,0,0,0,0,0,26388.746106,0,-0.3858032,97.30253,1617982137.011228,1681917671,1683868891,0,1617982137.391617,1,1617982136.009866,1,0.78,1617982138.179598,-39.41458,-48.42252,0
1617982138.252251,56,0,0,0,0,0,0,0,0,0,1617982138.242652,13.08649444580078,7.922971725463867,-41.71997451782227,278.2724304199219,285.2935180664062,13.62691593170166,26391.379705375,-0.0433349609375,-0.061065673828125,-0.98541259765625,26391.351065375,-0.0216219387948513,-0.01839418709278107,0.03976232558488846,26391.329032375,89.30178833007812,25.75566101074219,-29.07283020019531,26391.326160375,0.7341477312574541,-0.05681803827172596,0.01941944969186148,-0.1406751424074173,-0.0080769257619977,0.07477951794862747,0.01539484038949013,-0.06119396910071373,0.005781710147857666,2,0.01925281462355969,-0.02302841358389899,0.3584665861441313,0.9330600086216609,-0.05677676573395729,-0.01941822841763496,-0.9981980323791504,13.17800903320312,7.778396606445312,-41.60843658447266,-1,2,26388.846207625,4,2,1617982135.761883,0,0,0,0,0,0,0,0,0,26388.746106,0,-0.3858032,97.30253,1617982137.011228,1681917671,1683868891,0,1617982137.391617,1,1617982136.009866,1,0.78,1617982138.246356,-39.41458,-46.20459,0
1617982138.295157,57,0,0,0,0,0,0,0,0,0,1617982138.282392,12.99775695800781,7.978851318359375,-41.83313369750977,278.312744140625,285.3338317871094,13.62698459625244,26391.413324375,-0.037384033203125,-0.09222412109375,-0.9730072021484375,26391.384685375,0.0601365752518177,0.005086903925985098,-0.03030970320105553,26391.389012375,89.16317749023438,25.82023620605469,-29.18635559082031,26391.385930375,0.7356589326494852,-0.05633510606793896,0.01992332373322583,0.04280989617109299,0.0003692936152219772,-0.03085378743708134,0.01273020356893539,-0.04186084866523743,0.01451188325881958,2,0.01941843706699968,-0.02269800322466409,0.3591686412437834,0.9327946304816649,-0.05629413947463036,-0.01992200501263142,-0.9982154369354248,13.07200622558594,7.899627685546875,-41.70613861083984,-1,2,26388.846207625,4,2,1617982135.761883,0,0,0,0,0,0,0,0,0,26388.746106,0,-0.3858032,97.30253,1617982137.011228,1681917671,1683868891,0,1617982137.391617,1,1617982136.009866,1,0.78,1617982138.281714,-39.41458,-46.60839,0
1617982138.322215,58,0,0,0,0,0,0,0,0,0,1617982138.302456,13.01963043212891,8.020492553710938,-41.84051895141602,278.2790832519531,285.3001708984375,13.62701320648193,26391.446945375,-0.0321197509765625,-0.0691986083984375,-0.98944091796875,26391.418306375,-0.01531876903027296,0.09533024579286575,0.01268650032579899,26391.448991375,89.25453186035156,25.89610290527344,-29.18095397949219,26391.445699375,0.736262695722433,-0.05046121253471302,0.02236840784504471,-0.009176986292004585,0.1925983726978302,0.06173570081591606,0.01812423393130302,-0.05310344696044922,0.0117829442024231,2,0.01950961158986322,-0.01951269873727239,0.3594723131184542,0.9327477459493532,-0.05042718350887299,-0.02236654236912727,-0.9984772801399231,13.04597473144531,8.065044403076172,-41.83513259887695,-1,2,26388.846207625,4,2,1617982135.761883,0,0,0,0,0,0,0,0,0,26388.746106,0,-0.3858032,97.30253,1617982137.011228,1681917671,1683868891,0,1617982137.391617,1,1617982136.009866,1,0.78,1617982138.315111,-39.41458,-44.91657,0
1617982138.355837,59,0,0,0,0,0,0,0,0,0,1617982138.342292,13.25147247314453,7.980649948120117,-41.63887405395508,278.1290283203125,285.1501159667969,13.62706756591797,26391.480564375,-0.015960693359375,-0.037261962890625,-1.0458984375,26391.451925375,0.01184360962361097,0.2149322777986526,0.06607968360185623,26391.448991375,89.25453186035156,25.89610290527344,-29.18095397949219,26391.445699375,0.736262695722433,-0.05046121253471302,0.02236840784504471,-0.009176986292004585,0.1925983726978302,0.06173570081591606,0.01812423393130302,-0.05310344696044922,0.0117829442024231,2,0.01950961158986322,-0.01951269873727239,0.3594723131184542,0.9327477459493532,-0.05042718350887299,-0.02236654236912727,-0.9984772801399231,13.04597473144531,8.065044403076172,-41.83513259887695,-1,2,26388.846207625,4,2,1617982135.761883,0,0,0,0,0,0,0,0,0,26388.746106,0,-0.3858032,97.30253,1617982137.011228,1681917671,1683868891,0,1617982137.391617,1,1617982136.009866,1,0.78,1617982138.315111,-39.41458,-44.91657,0
