loggingTime,loggingSample,locationTimestamp_since1970,locationLatitude,locationLongitude,locationAltitude,locationSpeed,locationCourse,locationVerticalAccuracy,locationHorizontalAccuracy,locationFloor,locationHeadingTimestamp_since1970,locationHeadingX,locationHeadingY,locationHeadingZ,locationTrueHeading,locationMagneticHeading,locationHeadingAccuracy,accelerometerTimestamp_sinceReboot,accelerometerAccelerationX,accelerometerAccelerationY,accelerometerAccelerationZ,gyroTimestamp_sinceReboot,gyroRotationX,gyroRotationY,gyroRotationZ,magnetometerTimestamp_sinceReboot,magnetometerX,magnetometerY,magnetometerZ,motionTimestamp_sinceReboot,motionYaw,motionRoll,motionPitch,motionRotationRateX,motionRotationRateY,motionRotationRateZ,motionUserAccelerationX,motionUserAccelerationY,motionUserAccelerationZ,motionAttitudeReferenceFrame,motionQuaternionX,motionQuaternionY,motionQuaternionZ,motionQuaternionW,motionGravityX,motionGravityY,motionGravityZ,motionMagneticFieldX,motionMagneticFieldY,motionMagneticFieldZ,motionHeading,motionMagneticFieldCalibrationAccuracy,activityTimestamp_sinceReboot,activity,activityActivityConfidence,activityActivityStartDate,pedometerStartDate,pedometerNumberofSteps,pedometerAverageActivePace,pedometerCurrentPace,pedometerCurrentCadence,pedometerDistance,pedometerFloorAscended,pedometerFloorDescended,pedometerEndDate,altimeterTimestamp_sinceReboot,altimeterReset,altimeterRelativeAltitude,altimeterPressure,IP_Timestamp_since1970,IP_en0,IP_pdp_ip0,deviceID,deviceOrientationTimeStamp_since1970,deviceOrientation,batteryTimeStamp_since1970,batteryState,batteryLevel,avAudioRecorder_Timestamp_since1970,avAudioRecorderPeakPower,avAudioRecorderAveragePower,label
1617673452.021444,1,0,0,0,0,0,0,0,0,0,1617673452.006074,1.223979949951172,16.71462631225586,-40.42752838134766,349.6541748046875,356.6837463378906,15.82578372955322,1047654.398287167,0.008331298828125,-0.183349609375,-0.912384033203125,1047654.377116167,-0.09649964421987534,0.09738993644714355,-0.02589551359415054,1047654.356281167,12.5220947265625,51.51541137695312,-110.8355865478516,1047654.369646167,-0.3462927310014897,0.0122941336572953,0.1654173288533306,-0.06661699712276459,0.08428694307804108,-0.04597968980669975,0.004948563873767853,-0.02471283078193665,0.006462574005126953,2,0.08243298632082859,-0.008198333561984315,-0.1711901101265584,0.9817491606800203,0.01212600991129875,-0.1646639704704285,-0.9862751960754395,1.187085151672363,16.71957397460938,-40.44544219970703,-1,2,1047654.398757167,1,2,1617673451.987926,0,0,0,0,0,0,0,0,0,1047651.950211,0,-0.1928711,98.1577,0,0,0,0,0,1,1617673452.00491,1,0.12,1617673451.982472,-22.89496,-29.1501,0
1617673452.036786,2,0,0,0,0,0,0,0,0,0,1617673452.026577,1.562439918518066,16.63119506835938,-40.3267822265625,349.6004638671875,356.6300354003906,15.82608604431152,1047654.431908167,0.0241851806640625,-0.18115234375,-0.916473388671875,1047654.410739167,0.1146549433469772,0.6082952618598938,0.05017821490764618,1047654.416272167,12.91912841796875,51.22093200683594,-110.6675415039062,1047654.369646167,-0.3462927310014897,0.0122941336572953,0.1654173288533306,-0.06661699712276459,0.08428694307804108,-0.04597968980669975,0.004948563873767853,-0.02471283078193665,0.006462574005126953,2,0.08243298632082859,-0.008198333561984315,-0.1711901101265584,0.9817491606800203,0.01212600991129875,-0.1646639704704285,-0.9862751960754395,1.187085151672363,16.71957397460938,-40.44544219970703,-1,2,1047654.398757167,1,2,1617673451.987926,0,0,0,0,0,0,0,0,0,1047651.950211,0,-0.1928711,98.1577,0,0,0,0,0,1,1617673452.00491,1,0.12,1617673452.022432,-22.89496,-29.28376,0
1617673452.066085,3,0,0,0,0,0,0,0,0,0,1617673452.045853,2.079318046569824,16.62445068359375,-40.38945007324219,349.3027648925781,356.3323364257812,15.82638835906982,1047654.465530167,0.0685272216796875,-0.1962432861328125,-0.9818878173828125,1047654.444360167,0.3355526924133301,0.7864125370979309,0.08332151919603348,1047654.416272167,12.91912841796875,51.22093200683594,-110.6675415039062,1047654.429418167,-0.3445769259398861,0.03683010107923412,0.1672900513327901,0.274952232837677,0.741213858127594,0.05131982639431953,-0.01608984917402267,-0.01194065809249878,0.073902428150177,2,0.08544246439963775,0.003757223608874073,-0.1692933717134568,0.9818478099468639,0.03630772978067398,-0.1665108501911163,-0.985370934009552,1.837254524230957,16.58258056640625,-40.31845092773438,-1,2,1047654.398757167,1,2,1617673451.987926,0,0,0,0,0,0,0,0,0,1047651.950211,0,-0.1928711,98.1577,0,0,0,0,0,1,1617673452.00491,1,0.12,1617673452.044465,-22.89496,-29.71419,0
1617673452.118201,4,0,0,0,0,0,0,0,0,0,1617673452.10563,3.472687721252441,16.00811386108398,-40.96605682373047,348.8809204101562,355.9104919433594,15.82729339599609,1047654.499153167,0.1015472412109375,-0.18084716796875,-1.037384033203125,1047654.477984167,0.2195094525814056,0.4892988502979279,0.08600412309169769,1047654.476271167,14.51506042480469,50.81008911132812,-111.1122283935547,1047654.489191167,-0.340227567626631,0.07502489138468582,0.1836241289122021,0.1078042685985565,0.3041001260280609,0.06608864665031433,0.01999451965093613,-0.002311989665031433,-0.05358916521072388,2,0.09661858367936391,0.02129609616252484,-0.165074045225533,0.9813062070461451,0.07369442284107208,-0.18259397149086,-0.9804226756095886,3.227782249450684,16.17109298706055,-40.83428955078125,-1,2,1047654.398757167,1,2,1617673451.987926,0,0,0,0,0,0,0,0,0,1047651.950211,0,-0.1928711,98.1577,0,0,0,0,0,1,1617673452.00491,1,0.12,1617673452.073883,-22.89496,-30.76488,0
1617673452.135244,5,0,0,0,0,0,0,0,0,0,1617673452.126019,3.912582397460938,15.89350128173828,-41.10401153564453,348.8309631347656,355.8605346679688,15.82759571075439,1047654.532774167,0.09307861328125,-0.1767578125,-1.014984130859375,1047654.511605167,-0.1634805351495743,0.009704292751848698,0.03481657058000565,1047654.476271167,14.51506042480469,50.81008911132812,-111.1122283935547,1047654.489191167,-0.340227567626631,0.07502489138468582,0.1836241289122021,0.1078042685985565,0.3041001260280609,0.06608864665031433,0.01999451965093613,-0.002311989665031433,-0.05358916521072388,2,0.09661858367936391,0.02129609616252484,-0.165074045225533,0.9813062070461451,0.07369442284107208,-0.18259397149086,-0.9804226756095886,3.227782249450684,16.17109298706055,-40.83428955078125,-1,2,1047654.398757167,1,2,1617673451.987926,0,0,0,0,0,0,0,0,0,1047651.950211,0,-0.1928711,98.1577,0,0,0,0,0,1,1617673452.00491,1,0.12,1617673452.118767,-22.89496,-29.8267,0
1617673452.173759,6,0,0,0,0,0,0,0,0,0,1617673452.165517,3.93565559387207,16.1931266784668,-40.825439453125,348.8146057128906,355.8441772460938,15.82819843292236,1047654.566396167,0.0746612548828125,-0.16070556640625,-1.000167846679688,1047654.545226167,-0.454884946346283,-0.1511301249265671,-0.003217631252482533,1047654.536264167,15.56349182128906,50.49980163574219,-111.1283721923828,1047654.548964167,-0.3372123384236507,0.074116080255856,0.1697323151338818,-0.4753288626670837,-0.1611156910657883,-0.009490698575973511,0.009596370160579681,0.001773789525032043,-0.02450686693191528,2,0.08969982236886778,0.02217832840013508,-0.1639937758415768,0.9821241997013623,0.07298417389392853,-0.1689185202121735,-0.9829241037368774,4.052585601806641,16.02188491821289,-40.71363830566406,-1,2,1047654.398757167,1,2,1617673451.987926,0,0,0,0,0,0,0,0,0,1047651.950211,0,-0.1928711,98.1577,0,0,0,0,0,1,1617673452.00491,1,0.12,1617673452.141301,-22.89496,-29.88903,0
1617673452.205371,7,0,0,0,0,0,0,0,0,0,1617673452.185525,3.793700218200684,16.59100723266602,-40.75584411621094,349.134521484375,356.1640930175781,15.82850074768066,1047654.600019167,0.072509765625,-0.155120849609375,-1.0072021484375,1047654.578850167,-0.4033836722373962,-0.1275499761104584,-0.02046159841120243,1047654.596254167,15.12174987792969,51.43479919433594,-110.7902069091797,1047654.548964167,-0.3372123384236507,0.074116080255856,0.1697323151338818,-0.4753288626670837,-0.1611156910657883,-0.009490698575973511,0.009596370160579681,0.001773789525032043,-0.02450686693191528,2,0.08969982236886778,0.02217832840013508,-0.1639937758415768,0.9821241997013623,0.07298417389392853,-0.1689185202121735,-0.9829241037368774,4.052585601806641,16.02188491821289,-40.71363830566406,-1,2,1047654.398757167,1,2,1617673451.987926,0,0,0,0,0,0,0,0,0,1047651.950211,0,-0.1928711,98.1577,0,0,0,0,0,1,1617673452.00491,1,0.12,1617673452.17461,-22.89496,-30.3433,0
1617673452.23493,8,0,0,0,0,0,0,0,0,0,1617673452.22531,3.557053565979004,17.20532608032227,-40.36790466308594,349.099365234375,356.1289367675781,15.82910346984863,1047654.633640167,0.07073974609375,-0.157196044921875,-1.01361083984375,1047654.612471167,-0.1562521904706955,-0.08128313720226288,0.003038666676729918,1047654.596254167,15.12174987792969,51.43479919433594,-110.7902069091797,1047654.608736167,-0.3363919027867996,0.0657638386809517,0.1465171968352195,-0.1969826817512512,-0.09900689125061035,0.0009369702311232686,0.007497429847717285,-0.00622810423374176,-0.01880389451980591,2,0.07761002176030574,0.02007892977021428,-0.1644924334010272,0.9831153157521755,0.06501232832670212,-0.1459935307502747,-0.9871470332145691,3.65572452545166,16.97361373901367,-40.39026641845703,-1,2,1047654.398757167,1,2,1617673451.987926,0,0,0,0,0,0,0,0,0,1047651.950211,0,-0.1928711,98.1577,0,0,0,0,0,1,1617673452.00491,1,0.12,1617673452.207678,-22.89496,-30.35075,0
1617673452.283681,9,0,0,0,0,0,0,0,0,0,1617673452.264987,3.403367042541504,17.34151458740234,-40.08004760742188,348.9623413085938,355.9919128417969,15.8297061920166,1047654.667264167,0.0635986328125,-0.1458282470703125,-1.010040283203125,1047654.646093167,0.09229610860347748,-0.08658682554960251,0.06881608068943024,1047654.656243167,14.84745788574219,51.89669799804688,-110.509765625,1047654.608736167,-0.3363919027867996,0.0657638386809517,0.1465171968352195,-0.1969826817512512,-0.09900689125061035,0.0009369702311232686,0.007497429847717285,-0.00622810423374176,-0.01880389451980591,2,0.07761002176030574,0.02007892977021428,-0.1644924334010272,0.9831153157521755,0.06501232832670212,-0.1459935307502747,-0.9871470332145691,3.65572452545166,16.97361373901367,-40.39026641845703,-1,2,1047654.398757167,1,2,1617673451.987926,0,0,0,0,0,0,0,0,0,1047651.950211,0,-0.1928711,98.1577,0,0,0,0,0,1,1617673452.00491,1,0.12,1617673452.283609,-22.89496,-27.2411,0
1617673452.304758,10,0,0,0,0,0,0,0,0,0,1617673452.284898,3.331656455993652,17.33445739746094,-40.18827819824219,348.903076171875,355.9326477050781,15.83000659942627,1047654.700885167,0.047607421875,-0.1512603759765625,-0.986907958984375,1047654.679716167,0.1099888160824776,-0.1051985919475555,0.05033481121063232,1047654.656243167,14.84745788574219,51.89669799804688,-110.509765625,1047654.668509167,-0.3333597935295751,0.05981723984156496,0.1474053019148462,0.1209158450365067,-0.1288607716560364,0.06344787776470184,0.004465345293283463,0.00104387104511261,-0.02265387773513794,2,0.07753085038606729,0.01719824677541753,-0.1632132582489638,0.9833894050725416,0.05913327261805534,-0.1468720734119415,-0.9873863458633423,3.380403518676758,17.34574890136719,-40.17910766601562,-1,2,1047654.398757167,1,2,1617673451.987926,0,0,0,0,0,0,0,0,0,1047651.950211,0,-0.1928711,98.1577,0,0,0,0,0,1,1617673452.00491,1,0.12,1617673452.283609,-22.89496,-27.2411,0
1617673452.343038,11,0,0,0,0,0,0,0,0,0,1617673452.324663,3.180403709411621,17.37797546386719,-40.1524658203125,348.816650390625,355.8462219238281,15.83040142059326,1047654.734506167,0.0478973388671875,-0.145538330078125,-1.000045776367188,1047654.713337167,-0.003961452282965183,-0.08917061984539032,0.03185193985700607,1047654.716231167,14.60716247558594,51.99934387207031,-110.5663757324219,1047654.668509167,-0.3333597935295751,0.05981723984156496,0.1474053019148462,0.1209158450365067,-0.1288607716560364,0.06344787776470184,0.004465345293283463,0.00104387104511261,-0.02265387773513794,2,0.07753085038606729,0.01719824677541753,-0.1632132582489638,0.9833894050725416,0.05913327261805534,-0.1468720734119415,-0.9873863458633423,3.380403518676758,17.34574890136719,-40.17910766601562,-1,2,1047654.398757167,1,2,1617673451.987926,0,0,0,0,0,0,0,0,0,1047651.950211,0,-0.1928711,98.1577,0,0,0,0,0,1,1617673452.00491,1,0.12,1617673452.308264,-22.89496,-27.63953,0
1617673452.374466,12,0,0,0,0,0,0,0,0,0,1617673452.365119,3.099172592163086,17.29825973510742,-40.23298645019531,348.8266296386719,355.856201171875,15.83057594299316,1047654.768130167,0.052947998046875,-0.1455841064453125,-0.985931396484375,1047654.746961167,-0.04488252103328705,-0.1353714019060135,-0.01157489698380232,1047654.716231167,14.60716247558594,51.99934387207031,-110.5663757324219,1047654.728281167,-0.3310217005628885,0.05385641247081172,0.1496283415724336,-0.04072774201631546,-0.1280085444450378,0.01540250144898891,-0.005484171211719513,0.0007552355527877808,-0.0162540078163147,2,0.07811988586147782,0.01417257623918896,-0.1622508073855417,0.9835502141198535,0.05322891101241112,-0.1490706354379654,-0.9873928427696228,3.14637279510498,17.36953353881836,-40.12747192382812,-1,2,1047654.398757167,1,2,1617673451.987926,0,0,0,0,0,0,0,0,0,1047651.950211,0,-0.1928711,98.1577,0,0,0,0,0,1,1617673452.00491,1,0.12,1617673452.373844,-22.89496,-28.33599,0
1617673452.414153,13,0,0,0,0,0,0,0,0,0,1617673452.404353,2.948816299438477,17.36531448364258,-40.13771820068359,348.8393859863281,355.8689575195312,15.8306884765625,1047654.801751167,0.0438079833984375,-0.155914306640625,-0.978363037109375,1047654.780582167,-0.02866147272288799,-0.1023378223180771,-0.01470890454947948,1047654.776224167,14.44035339355469,51.93559265136719,-110.32080078125,1047654.788054167,-0.3316649476048644,0.04625293756076838,0.1465880805965434,-0.01774954609572887,-0.0832497701048851,0.003573499619960785,0.004018325358629227,-0.01082716882228851,0.01713258028030396,2,0.07601149800331342,0.01066109993147804,-0.1629160939112373,0.9836498123160543,0.04574057087302208,-0.1460636556148529,-0.9882171750068665,2.978701591491699,17.29205322265625,-39.99268341064453,-1,2,1047654.398757167,1,2,1617673451.987926,0,0,0,0,0,0,0,0,0,1047651.950211,0,-0.1928711,98.1577,0,0,0,0,0,1,1617673452.00491,1,0.12,1617673452.373844,-22.89496,-28.33599,0
1617673452.434161,14,0,0,0,0,0,0,0,0,0,1617673452.424879,2.811319351196289,17.44348526000977,-40.26548004150391,348.8092041015625,355.8387756347656,15.83073616027832,1047654.835372167,0.04034423828125,-0.1558837890625,-0.9853668212890625,1047654.814203167,0.09392223507165909,-0.04186275973916054,0.02963991835713387,1047654.776224167,14.44035339355469,51.93559265136719,-110.32080078125,1047654.788054167,-0.3316649476048644,0.04625293756076838,0.1465880805965434,-0.01774954609572887,-0.0832497701048851,0.003573499619960785,0.004018325358629227,-0.01082716882228851,0.01713258028030396,2,0.07601149800331342,0.01066109993147804,-0.1629160939112373,0.9836498123160543,0.04574057087302208,-0.1460636556148529,-0.9882171750068665,2.978701591491699,17.29205322265625,-39.99268341064453,-1,2,1047654.398757167,1,2,1617673451.987926,0,0,0,0,0,0,0,0,0,1047651.950211,0,-0.1928711,98.1577,0,0,0,0,0,1,1617673452.00491,1,0.12,1617673452.414688,-22.89496,-29.45216,0
1617673452.477348,15,0,0,0,0,0,0,0,0,0,1617673452.464467,2.792757034301758,17.34029006958008,-40.20252990722656,348.7299499511719,355.759521484375,15.83083343505859,1047654.868996167,0.032196044921875,-0.160003662109375,-0.959014892578125,1047654.847827167,0.1055418699979782,-0.0582694299519062,0.03826776146888733,1047654.836208167,14.23687744140625,51.94247436523438,-110.437744140625,1047654.847827167,-0.3301365435955744,0.04274119031167398,0.1508445818125627,0.09422105550765991,-0.06356701999902725,0.04018040001392365,-0.004904739558696747,-0.009471029043197632,0.01145380735397339,2,0.07781096724356398,0.008639784615155063,-0.1622268473964213,0.9836427473423335,0.04224297776818275,-0.1502731740474701,-0.9877415895462036,2.819019317626953,17.36479187011719,-40.11370086669922,-1,2,1047654.398757167,1,2,1617673451.987926,0,0,0,0,0,0,0,0,0,1047651.950211,0,-0.1928711,98.1577,0,0,0,0,0,1,1617673452.00491,1,0.12,1617673452.477332,-22.89496,-26.98068,0
1617673452.503697,16,0,0,0,0,0,0,0,0,0,1617673452.484182,2.803230285644531,17.26964569091797,-40.22103118896484,348.6807556152344,355.7103271484375,15.83088302612305,1047654.902617167,0.03179931640625,-0.156829833984375,-0.981170654296875,1047654.881448167,-0.01719683036208153,0.007004912476986647,0.0468471348285675,1047654.896199167,14.21543884277344,51.76571655273438,-110.4229583740234,1047654.847827167,-0.3301365435955744,0.04274119031167398,0.1508445818125627,0.09422105550765991,-0.06356701999902725,0.04018040001392365,-0.004904739558696747,-0.009471029043197632,0.01145380735397339,2,0.07781096724356398,0.008639784615155063,-0.1622268473964213,0.9836427473423335,0.04224297776818275,-0.1502731740474701,-0.9877415895462036,2.819019317626953,17.36479187011719,-40.11370086669922,-1,2,1047654.398757167,1,2,1617673451.987926,0,0,0,0,0,0,0,0,0,1047651.950211,0,-0.1928711,98.1577,0,0,0,0,0,1,1617673452.00491,1,0.12,1617673452.477332,-22.89496,-26.98068,0
1617673452.543596,17,0,0,0,0,0,0,0,0,0,1617673452.524129,2.791012763977051,17.3104133605957,-40.16640472412109,348.5654907226562,355.5950622558594,15.83099555969238,1047654.936240167,0.0357513427734375,-0.1446380615234375,-0.9894561767578125,1047654.915069167,-0.09311023354530334,-0.05148210003972054,0.0383247509598732,1047654.896199167,14.21543884277344,51.76571655273438,-110.4229583740234,1047654.907599167,-0.3273922195163461,0.04111333499468134,0.1509041502973331,-0.08898980915546417,-0.03520045429468155,0.04719248414039612,-0.007248431444168091,-0.005170226097106934,-0.0009999275207519531,2,0.0776973509170165,0.007940865614101927,-0.160939262896191,0.9838692133445996,0.04063465446233749,-0.1503320634365082,-0.987800121307373,2.764983177185059,17.269287109375,-40.06206512451172,-1,2,1047654.398757167,1,2,1617673451.987926,0,0,0,0,0,0,0,0,0,1047651.950211,0,-0.1928711,98.1577,0,0,0,0,0,1,1617673452.00491,1,0.12,1617673452.541339,-22.89496,-28.53123,0
1617673452.582382,18,0,0,0,0,0,0,0,0,0,1617673452.564259,2.769491195678711,17.30972290039062,-40.01235198974609,348.4989013671875,355.5284729003906,15.83109664916992,1047654.969862167,0.0330047607421875,-0.1367034912109375,-1.0020751953125,1047654.948693167,-0.05358253419399261,-0.005321794655174017,0.02171328477561474,1047654.956183167,14.21969604492188,51.89866638183594,-110.3663635253906,1047654.907599167,-0.3273922195163461,0.04111333499468134,0.1509041502973331,-0.08898980915546417,-0.03520045429468155,0.04719248414039612,-0.007248431444168091,-0.005170226097106934,-0.0009999275207519531,2,0.0776973509170165,0.007940865614101927,-0.160939262896191,0.9838692133445996,0.04063465446233749,-0.1503320634365082,-0.987800121307373,2.764983177185059,17.269287109375,-40.06206512451172,-1,2,1047654.398757167,1,2,1617673451.987926,0,0,0,0,0,0,0,0,0,1047651.950211,0,-0.1928711,98.1577,0,0,0,0,0,1,1617673452.00491,1,0.12,1617673452.582303,-22.89496,-28.91706,0
1617673452.603504,19,0,0,0,0,0,0,0,0,0,1617673452.583691,2.697103500366211,17.36367416381836,-40.11414337158203,348.4835510253906,355.5131225585938,15.83114719390869,1047655.003483167,0.03460693359375,-0.144317626953125,-1.001541137695312,1047654.982314167,0.06661257892847061,-0.005864280741661787,0.008922655135393143,1047654.956183167,14.21969604492188,51.89866638183594,-110.3663635253906,1047654.967372167,-0.3254637850782928,0.03860720755827753,0.1473002267002746,0.004290525801479816,-0.002345720306038857,0.01347599271684885,-0.006151456385850906,0.01032407581806183,-0.011138916015625,2,0.07571665724539367,0.007076362874356597,-0.1601437244358697,0.9841599522797281,0.03817963972687721,-0.1467681378126144,-0.988433837890625,2.711483955383301,17.30692291259766,-39.98683929443359,-1,2,1047654.398757167,1,2,1617673451.987926,0,0,0,0,0,0,0,0,0,1047651.950211,0,-0.1928711,98.1577,0,0,0,0,0,1,1617673452.00491,1,0.12,1617673452.582303,-22.89496,-28.91706,0
1617673452.659089,20,0,0,0,0,0,0,0,0,0,1617673452.643541,2.717530250549316,17.27279663085938,-40.25274658203125,348.4854125976562,355.5149841308594,15.83130264282227,1047655.037106167,0.0361480712890625,-0.148284912109375,-0.993194580078125,1047655.015937167,0.06749861687421799,-0.009918943047523499,-0.00244664610363543,1047655.016166167,14.24946594238281,51.82489013671875,-110.3280181884766,1047655.027144167,-0.3251925567106446,0.03763368283257218,0.1506275857445016,0.03066966123878956,-0.01620088890194893,-0.001202183542773128,6.316974759101868e-05,0.003009751439094543,-0.006209313869476318,2,0.07727431142799815,0.006336747031066309,-0.1599962385078907,0.9840679923574347,0.03719877824187279,-0.1500586420297623,-0.9879770278930664,2.767260551452637,17.22222518920898,-40.09402465820312,-1,2,1047654.398757167,1,2,1617673451.987926,0,0,0,0,0,0,0,0,0,1047651.950211,0,-0.1928711,98.1577,0,0,0,0,0,1,1617673452.00491,1,0.12,1617673452.659039,-22.89496,-27.11436,0
1617673452.673601,21,0,0,0,0,0,0,0,0,0,1617673452.663489,2.62554931640625,17.33126068115234,-40.20349884033203,348.5097045898438,355.5392761230469,15.83135414123535,1047655.070728167,0.042022705078125,-0.1634368896484375,-0.98736572265625,1047655.049559167,-0.01100790966302156,-0.03574521467089653,-0.02702016569674015,1047655.016166167,14.24946594238281,51.82489013671875,-110.3280181884766,1047655.027144167,-0.3251925567106446,0.03763368283257218,0.1506275857445016,0.03066966123878956,-0.01620088890194893,-0.001202183542773128,6.316974759101868e-05,0.003009751439094543,-0.006209313869476318,2,0.07727431142799815,0.006336747031066309,-0.1599962385078907,0.9840679923574347,0.03719877824187279,-0.1500586420297623,-0.9879770278930664,2.767260551452637,17.22222518920898,-40.09402465820312,-1,2,1047654.398757167,1,2,1617673451.987926,0,0,0,0,0,0,0,0,0,1047651.950211,0,-0.1928711,98.1577,0,0,0,0,0,1,1617673452.00491,1,0.12,1617673452.659039,-22.89496,-27.11436,0
1617673452.714714,22,0,0,0,0,0,0,0,0,0,1617673452.703262,2.614494323730469,17.30011749267578,-40.21300506591797,348.5405883789062,355.5701599121094,15.83145999908447,1047655.104349167,0.0384368896484375,-0.166839599609375,-0.9673614501953125,1047655.083180167,-0.06433398276567459,-0.07754538953304291,-0.02053377032279968,1047655.076151167,14.11770629882812,51.80535888671875,-110.5238189697266,1047655.086917167,-0.3260928238262799,0.03489251212517703,0.1479337224099646,-0.07734496891498566,-0.08953775465488434,-0.01656958647072315,0.01003598794341087,-0.01538597047328949,-0.0061531662940979,2,0.07573231301745745,0.005173033067809644,-0.1605843835912723,0.9840987955356486,0.03450440615415573,-0.1473947465419769,-0.9884757399559021,2.624238014221191,17.24231719970703,-40.1343994140625,-1,2,1047654.398757167,1,2,1617673451.987926,0,0,0,0,0,0,0,0,0,1047651.950211,0,-0.1928711,98.1577,0,0,0,0,0,1,1617673452.00491,1,0.12,1617673452.675107,-22.89496,-27.11436,0
1617673452.743141,23,0,0,0,0,0,0,0,0,0,1617673452.723911,2.501765251159668,17.27849578857422,-40.18052673339844,348.5333557128906,355.5629272460938,15.83151435852051,1047655.137972167,0.0440673828125,-0.154876708984375,-0.9935150146484375,1047655.116803167,-0.07515972852706909,0.02083257772028446,0.009284844622015953,1047655.136139167,13.87911987304688,52.06365966796875,-110.6100921630859,1047655.086917167,-0.3260928238262799,0.03489251212517703,0.1479337224099646,-0.07734496891498566,-0.08953775465488434,-0.01656958647072315,0.01003598794341087,-0.01538597047328949,-0.0061531662940979,2,0.07573231301745745,0.005173033067809644,-0.1605843835912723,0.9840987955356486,0.03450440615415573,-0.1473947465419769,-0.9884757399559021,2.624238014221191,17.24231719970703,-40.1343994140625,-1,2,1047654.398757167,1,2,1617673451.987926,0,0,0,0,0,0,0,0,0,1047651.950211,0,-0.1928711,98.1577,0,0,0,0,0,1,1617673452.00491,1,0.12,1617673452.741384,-22.89496,-28.23812,0
1617673452.772883,24,0,0,0,0,0,0,0,0,0,1617673452.743278,2.456053733825684,17.38679885864258,-40.13349914550781,348.5203857421875,355.5499572753906,15.83156776428223,1047655.171594167,0.0368804931640625,-0.162689208984375,-0.984161376953125,1047655.150425167,-0.01168248895555735,0.0131898382678628,0.005094893276691437,1047655.136139167,13.87911987304688,52.06365966796875,-110.6100921630859,1047655.146690167,-0.3259161722438659,0.03369241550101017,0.1439439002104458,-0.03047491982579231,-0.002118092030286789,0.003169395495206118,0.01027194410562515,-0.009659320116043091,-0.005608916282653809,2,0.07367296507335956,0.004914367218498621,-0.1605995322925143,0.9842540092926689,0.03333766013383865,-0.1434473395347595,-0.9890962839126587,2.435439109802246,17.35695648193359,-40.19063568115234,-1,2,1047654.398757167,1,2,1617673451.987926,0,0,0,0,0,0,0,0,0,1047651.950211,0,-0.1928711,98.1577,0,0,0,0,0,1,1617673452.00491,1,0.12,1617673452.741384,-22.89496,-28.23812,0
1617673452.812511,25,0,0,0,0,0,0,0,0,0,1617673452.802809,2.637948989868164,17.29661560058594,-39.4239501953125,348.4193115234375,355.4488830566406,15.83173179626465,1047655.205217167,0.0399017333984375,-0.1520538330078125,-1.000961303710938,1047655.184046167,-0.00957086868584156,0.01544739957898855,0.04068377986550331,1047655.196127167,14.10115051269531,51.86500549316406,-109.6812591552734,1047655.146690167,-0.3259161722438659,0.03369241550101017,0.1439439002104458,-0.03047491982579231,-0.002118092030286789,0.003169395495206118,0.01027194410562515,-0.009659320116043091,-0.005608916282653809,2,0.07367296507335956,0.004914367218498621,-0.1605995322925143,0.9842540092926689,0.03333766013383865,-0.1434473395347595,-0.9890962839126587,2.435439109802246,17.35695648193359,-40.19063568115234,-1,2,1047654.398757167,1,2,1617673451.987926,0,0,0,0,0,0,0,0,0,1047651.950211,0,-0.1928711,98.1577,0,0,0,0,0,1,1617673452.00491,1,0.12,1617673452.807921,-22.89496,-29.25872,0
1617673452.842725,26,0,0,0,0,0,0,0,0,0,1617673452.822667,2.62740421295166,17.4600715637207,-39.76480102539062,348.3493957519531,355.3789672851562,15.83178615570068,1047655.238838167,0.0360260009765625,-0.137939453125,-1.003631591796875,1047655.217669167,-0.04534830525517464,-0.009938917122781277,0.06055495515465736,1047655.196127167,14.10115051269531,51.86500549316406,-109.6812591552734,1047655.206462167,-0.3238819910834965,0.03464819236252153,0.1440637276769378,-0.04662081599235535,-0.01556210033595562,0.05870234593749046,0.005619317293167114,-0.008487865328788757,-0.01191449165344238,2,0.07380314397512905,0.005450030732668698,-0.1595614298728045,0.9844102912697901,0.03428240120410919,-0.1435659229755402,-0.9890468120574951,2.646625518798828,17.34573364257812,-39.39666748046875,-1,2,1047654.398757167,1,2,1617673451.987926,0,0,0,0,0,0,0,0,0,1047651.950211,0,-0.1928711,98.1577,0,0,0,0,0,1,1617673452.00491,1,0.12,1617673452.841669,-22.89496,-29.51848,0
1617673452.872711,27,0,0,0,0,0,0,0,0,0,1617673452.862805,2.748481750488281,17.36777877807617,-39.58224487304688,348.1956176757812,355.2251892089844,15.83189582824707,1047655.272460167,0.0339508056640625,-0.13275146484375,-0.984466552734375,1047655.251290167,-0.02300944551825523,-0.1153470948338509,0.06288788467645645,1047655.256117167,14.16270446777344,52.02285766601562,-110.0782928466797,1047655.206462167,-0.3238819910834965,0.03464819236252153,0.1440637276769378,-0.04662081599235535,-0.01556210033595562,0.05870234593749046,0.005619317293167114,-0.008487865328788757,-0.01191449165344238,2,0.07380314397512905,0.005450030732668698,-0.1595614298728045,0.9844102912697901,0.03428240120410919,-0.1435659229755402,-0.9890468120574951,2.646625518798828,17.34573364257812,-39.39666748046875,-1,2,1047654.398757167,1,2,1617673451.987926,0,0,0,0,0,0,0,0,0,1047651.950211,0,-0.1928711,98.1577,0,0,0,0,0,1,1617673452.00491,1,0.12,1617673452.841669,-22.89496,-29.51848,0
1617673452.912181,28,0,0,0,0,0,0,0,0,0,1617673452.902557,2.443941116333008,17.65759658813477,-40.15412902832031,348.0564575195312,355.0860290527344,15.83200836181641,1047655.306084167,0.017333984375,-0.1419830322265625,-0.96234130859375,1047655.284914167,-0.002571548335254192,-0.124947264790535,0.05752773955464363,1047655.256117167,14.16270446777344,52.02285766601562,-110.0782928466797,1047655.266235167,-0.3199626509720529,0.03030676670017416,0.1424227298412358,-0.0198034904897213,-0.1437197029590607,0.06039614602923393,0.005786528810858727,0.008396849036216736,-0.003560483455657959,2,0.07264227194244052,0.003588323542845346,-0.1578134257061431,0.9847867917963813,0.02999531850218773,-0.1419417262077332,-0.989420473575592,2.61107063293457,17.54245376586914,-39.906005859375,-1,2,1047654.398757167,1,2,1617673451.987926,0,0,0,0,0,0,0,0,0,1047651.950211,0,-0.1928711,98.1577,0,0,0,0,0,1,1617673452.00491,1,0.12,1617673452.90892,-22.34159,-26.57946,0
1617673452.944162,29,0,0,0,0,0,0,0,0,0,1617673452.942354,2.440658569335938,17.66335678100586,-39.93230438232422,347.8887939453125,354.9183654785156,15.83212089538574,1047655.339705167,0.012115478515625,-0.1425628662109375,-0.9719696044921875,1047655.318536167,-0.01030377019196749,-0.04812385141849518,0.07094234973192215,1047655.316116167,13.88377380371094,52.02911376953125,-110.2838745117188,1047655.326008167,-0.3160370703969436,0.02470818303217156,0.1416152155951914,-0.02916931733489037,-0.03752796724438667,0.07359907776117325,-0.007399030029773712,-0.0004591792821884155,0.01492518186569214,2,0.07180080783552234,0.001037041858545848,-0.1560923153325047,0.9851288379209974,0.02445834875106812,-0.141142338514328,-0.9896871447563171,2.414521217346191,17.57837677001953,-39.89514923095703,-1,2,1047654.398757167,1,2,1617673451.987926,0,0,0,0,0,0,0,0,0,1047652.899436,0,-0.1770325,98.1575,0,0,0,0,0,1,1617673452.00491,1,0.12,1617673452.90892,-22.34159,-26.57946,0
1617673452.972451,30,0,0,0,0,0,0,0,0,0,1617673452.962796,2.336008071899414,17.71955490112305,-40.00255584716797,347.8054809570312,354.8350524902344,15.83217716217041,1047655.373327167,0.015289306640625,-0.13134765625,-0.995849609375,1047655.352157167,-0.05768353492021561,0.0304977223277092,0.07143237441778183,1047655.316116167,13.88377380371094,52.02911376953125,-110.2838745117188,1047655.326008167,-0.3160370703969436,0.02470818303217156,0.1416152155951914,-0.02916931733489037,-0.03752796724438667,0.07359907776117325,-0.007399030029773712,-0.0004591792821884155,0.01492518186569214,2,0.07180080783552234,0.001037041858545848,-0.1560923153325047,0.9851288379209974,0.02445834875106812,-0.141142338514328,-0.9896871447563171,2.414521217346191,17.57837677001953,-39.89514923095703,-1,2,1047654.398757167,1,2,1617673451.987926,0,0,0,0,0,0,0,0,0,1047652.899436,0,-0.1770325,98.1575,0,0,0,0,0,1,1617673452.00491,1,0.12,1617673452.954045,-22.34159,-27.61001,0
1617673453.012329,31,0,0,0,0,0,0,0,0,0,1617673453.002389,2.422695159912109,17.84156799316406,-39.7900390625,347.7245788574219,354.754150390625,15.83229160308838,1047655.406950167,0.021636962890625,-0.1299591064453125,-0.9975128173828125,1047655.385781167,-0.1134354844689369,0.01946238055825233,0.01963522098958492,1047655.376105167,13.88333129882812,52.25773620605469,-110.0382995605469,1047655.385781167,-0.3122216258117481,0.02522411080104818,0.1369297694491502,-0.1247521787881851,0.0141658578068018,0.02154631540179253,-0.005621965974569321,0.01038840413093567,-0.01371896266937256,2,0.06953036447384518,0.001793577229260403,-0.1542486285260507,0.9855807964009082,0.02498535811901093,-0.1365022659301758,-0.9903246164321899,2.412235260009766,17.78435897827148,-39.75441741943359,-1,2,1047654.398757167,1,2,1617673451.987926,0,0,0,0,0,0,0,0,0,1047652.899436,0,-0.1770325,98.1575,0,0,0,0,0,1,1617673452.00491,1,0.12,1617673452.974097,-22.34159,-28.12355,0
1617673453.041681,32,0,0,0,0,0,0,0,0,0,1617673453.022444,2.402315139770508,17.97611999511719,-39.94725799560547,347.7289428710938,354.7585144042969,15.83234786987305,1047655.440571167,0.0264892578125,-0.14251708984375,-1.021392822265625,1047655.419402167,-0.1359754055738449,0.07001876831054688,-0.01404125057160854,1047655.436098167,13.86102294921875,52.63375854492188,-110.2036895751953,1047655.385781167,-0.3122216258117481,0.02522411080104818,0.1369297694491502,-0.1247521787881851,0.0141658578068018,0.02154631540179253,-0.005621965974569321,0.01038840413093567,-0.01371896266937256,2,0.06953036447384518,0.001793577229260403,-0.1542486285260507,0.9855807964009082,0.02498535811901093,-0.1365022659301758,-0.9903246164321899,2.412235260009766,17.78435897827148,-39.75441741943359,-1,2,1047654.398757167,1,2,1617673451.987926,0,0,0,0,0,0,0,0,0,1047652.899436,0,-0.1770325,98.1575,1617673453.012811,587422867,1685438189,0,0,1,1617673452.00491,1,0.12,1617673453.041504,-22.34159,-28.82771,0
1617673453.08152,33,0,0,0,0,0,0,0,0,0,1617673453.062254,2.489457130432129,18.08978652954102,-39.82147216796875,347.72265625,354.7522277832031,15.83246421813965,1047655.474195167,0.0229949951171875,-0.1460113525390625,-1.01611328125,1047655.453023167,-0.01310168765485287,0.04824715852737427,0.01262764446437359,1047655.436098167,13.86102294921875,52.63375854492188,-110.2036895751953,1047655.445553167,-0.3122219101839222,0.0269564466092104,0.1299049884234263,-0.05376781150698662,0.03895166516304016,0.0009269763249903917,-6.898492574691772e-05,-0.01351118087768555,-0.03080445528030396,2,0.06620278955330337,0.003195196413703517,-0.1542715435833503,0.9858027797788077,0.02672608010470867,-0.1295399367809296,-0.9912139773368835,2.506779670715332,18.05237579345703,-39.76742553710938,-1,2,1047654.398757167,1,2,1617673451.987926,0,0,0,0,0,0,0,0,0,1047652.899436,0,-0.1770325,98.1575,1617673453.012811,587422867,1685438189,0,0,1,1617673452.00491,1,0.12,1617673453.078412,-22.34159,-29.98109,0
1617673453.111518,34,0,0,0,0,0,0,0,0,0,1617673453.101954,2.641707420349121,18.09624099731445,-39.71731567382812,347.6351928710938,354.6647644042969,15.83259582519531,1047655.507816167,0.0244598388671875,-0.137451171875,-1.023651123046875,1047655.486647167,0.04313868284225464,0.07049281150102615,0.04263108223676682,1047655.496090167,14.09414672851562,52.68885803222656,-110.0803833007812,1047655.445553167,-0.3122219101839222,0.0269564466092104,0.1299049884234263,-0.05376781150698662,0.03895166516304016,0.0009269763249903917,-6.898492574691772e-05,-0.01351118087768555,-0.03080445528030396,2,0.06620278955330337,0.003195196413703517,-0.1542715435833503,0.9858027797788077,0.02672608010470867,-0.1295399367809296,-0.9912139773368835,2.506779670715332,18.05237579345703,-39.76742553710938,-1,2,1047654.398757167,1,2,1617673451.987926,0,0,0,0,0,0,0,0,0,1047652.899436,0,-0.1770325,98.1575,1617673453.012811,587422867,1685438189,0,0,1,1617673452.00491,1,0.12,1617673453.107989,-22.34159,-29.5928,0
1617673453.141689,35,0,0,0,0,0,0,0,0,0,1617673453.121618,2.629288673400879,18.15191650390625,-39.78710174560547,347.5829772949219,354.612548828125,15.8326997756958,1047655.541437167,0.026275634765625,-0.1260986328125,-1.016647338867188,1047655.520268167,0.01195013616234064,0.01787780039012432,0.0387902744114399,1047655.496090167,14.09414672851562,52.68885803222656,-110.0803833007812,1047655.505326167,-0.3102381024348508,0.02958512558354608,0.1306620705987262,0.01954156532883644,0.04683682695031166,0.04525598883628845,-0.005601251497864723,-0.009037360548973083,-0.03025925159454346,2,0.06677410810162923,0.004498027057206706,-0.1531971612784834,0.9859268197882007,0.02932865917682648,-0.1302905976772308,-0.9910419583320618,2.62893009185791,18.08163833618164,-39.70536041259766,-1,2,1047654.398757167,1,2,1617673451.987926,0,0,0,0,0,0,0,0,0,1047652.899436,0,-0.1770325,98.1575,1617673453.012811,587422867,1685438189,0,0,1,1617673452.00491,1,0.12,1617673453.141667,-22.34159,-30.11578,0
1617673453.183131,36,0,0,0,0,0,0,0,0,0,1617673453.18147,2.684782028198242,18.08507537841797,-39.712158203125,347.5184020996094,354.5479736328125,15.83310604095459,1047655.575061167,0.0266265869140625,-0.1160888671875,-1.013412475585938,1047655.553891167,-0.02274579182267189,-0.02280358225107193,0.01596884615719318,1047655.556083167,14.14002990722656,52.7677001953125,-110.1122741699219,1047655.565099167,-0.308337632087413,0.02868781778098775,0.1304161284475994,-0.02343105711042881,-0.06207908317446709,0.0007684666197746992,0.0001546628773212433,0.0127219557762146,-0.02925533056259155,2,0.06658025994765368,0.004138025806351746,-0.1522931392046009,0.9860815689136637,0.02844029478728771,-0.1300467550754547,-0.9910998940467834,2.677356719970703,18.17029190063477,-39.708740234375,-1,2,1047654.398757167,1,2,1617673451.987926,0,0,0,0,0,0,0,0,0,1047652.899436,0,-0.1770325,98.1575,1617673453.012811,587422867,1685438189,0,0,1,1617673452.00491,1,0.12,1617673453.182972,-22.34159,-30.67183,0
1617673453.211405,37,0,0,0,0,0,0,0,0,0,1617673453.201692,2.63480281829834,18.24344253540039,-39.79946136474609,347.5434875488281,354.5730590820312,15.83324813842773,1047655.608682167,0.0167694091796875,-0.1326904296875,-0.9758453369140625,1047655.587513167,0.005816610064357519,-0.06494171172380447,-0.02208053506910801,1047655.556083167,14.14002990722656,52.7677001953125,-110.1122741699219,1047655.565099167,-0.308337632087413,0.02868781778098775,0.1304161284475994,-0.02343105711042881,-0.06207908317446709,0.0007684666197746992,0.0001546628773212433,0.0127219557762146,-0.02925533056259155,2,0.06658025994765368,0.004138025806351746,-0.1522931392046009,0.9860815689136637,0.02844029478728771,-0.1300467550754547,-0.9910998940467834,2.677356719970703,18.17029190063477,-39.708740234375,-1,2,1047654.398757167,1,2,1617673451.987926,0,0,0,0,0,0,0,0,0,1047652.899436,0,-0.1770325,98.1575,1617673453.012811,587422867,1685438189,0,0,1,1617673452.00491,1,0.12,1617673453.208023,-22.34159,-30.16709,0
1617673453.24304,38,0,0,0,0,0,0,0,0,0,1617673453.241323,2.621589660644531,18.28178405761719,-39.72589874267578,347.57763671875,354.6072082519531,15.83346462249756,1047655.642303167,0.02117919921875,-0.1389617919921875,-0.9918975830078125,1047655.621134167,0.01118500996381044,0.01372752990573645,-0.01337652560323477,1047655.616075167,14.13420104980469,52.695556640625,-110.0712890625,1047655.624871167,-0.3093581065442483,0.02591906301554111,0.1299613558826596,-0.000323031097650528,0.01192686147987843,-0.008729517459869385,-0.008165268227458,-0.01128852367401123,0.01256567239761353,2,0.06614663232767126,0.002774190830906225,-0.152893485473341,0.9860225026541491,0.02569760754704475,-0.1295958310365677,-0.9912338256835938,2.644912719726562,18.20674514770508,-39.68074035644531,-1,2,1047654.398757167,1,2,1617673451.987926,0,0,0,0,0,0,0,0,0,1047652.899436,0,-0.1770325,98.1575,1617673453.012811,587422867,1685438189,0,0,1,1617673452.00491,1,0.12,1617673453.208023,-22.34159,-30.16709,0
1617673453.28119,39,0,0,0,0,0,0,0,0,0,1617673453.261252,2.560449600219727,18.23445129394531,-39.76555633544922,347.5816040039062,354.6111755371094,15.8335428237915,1047655.675927167,0.0153656005859375,-0.13470458984375,-0.9917144775390625,1047655.654757167,0.03282186388969421,0.04661171138286591,-0.003691407619044185,1047655.676058167,14.05964660644531,52.69027709960938,-109.9215087890625,1047655.624871167,-0.3093581065442483,0.02591906301554111,0.1299613558826596,-0.000323031097650528,0.01192686147987843,-0.008729517459869385,-0.008165268227458,-0.01128852367401123,0.01256567239761353,2,0.06614663232767126,0.002774190830906225,-0.152893485473341,0.9860225026541491,0.02569760754704475,-0.1295958310365677,-0.9912338256835938,2.644912719726562,18.20674514770508,-39.68074035644531,-1,2,1047654.398757167,1,2,1617673451.987926,0,0,0,0,0,0,0,0,0,1047652.899436,0,-0.1770325,98.1575,1617673453.012811,587422867,1685438189,0,0,1,1617673452.00491,1,0.12,1617673453.274023,-22.34159,-29.84925,0
1617673453.314864,40,0,0,0,0,0,0,0,0,0,1617673453.301317,2.626039505004883,18.23897171020508,-39.68686676025391,347.6386108398438,354.6681823730469,15.83365917205811,1047655.709548167,0.0192108154296875,-0.1427764892578125,-1.006256103515625,1047655.688379167,0.01308118086308241,0.06826747208833694,-0.03629036247730255,1047655.676058167,14.05964660644531,52.69027709960938,-109.9215087890625,1047655.684644167,-0.3100223133918552,0.02788904328608045,0.1303838506067592,0.004473063163459301,0.06154055893421173,-0.02853821404278278,-0.01258832588791847,-0.006017327308654785,-0.001900255680084229,2,0.06650665438427755,0.00369066417735598,-0.1531506686059524,0.9859554752944151,0.02764873765408993,-0.1300147473812103,-0.9911264777183533,2.626911163330078,18.16090774536133,-39.61802673339844,-1,2,1047654.398757167,1,2,1617673451.987926,0,0,0,0,0,0,0,0,0,1047652.899436,0,-0.1770325,98.1575,1617673453.012811,587422867,1685438189,0,0,1,1617673452.00491,1,0.12,1617673453.314845,-22.34159,-30.26687,0
1617673453.350446,41,0,0,0,0,0,0,0,0,0,1617673453.348356,2.672275543212891,18.22289276123047,-39.692138671875,347.7331848144531,354.7627563476562,15.83377742767334,1047655.743171167,0.0241851806640625,-0.1499786376953125,-1.004653930664062,1047655.722000167,-0.01099805627018213,0.04607401788234711,-0.04894037917256355,1047655.736049167,14.11036682128906,52.83798217773438,-110.1254577636719,1047655.684644167,-0.3100223133918552,0.02788904328608045,0.1303838506067592,0.004473063163459301,0.06154055893421173,-0.02853821404278278,-0.01258832588791847,-0.006017327308654785,-0.001900255680084229,2,0.06650665438427755,0.00369066417735598,-0.1531506686059524,0.9859554752944151,0.02764873765408993,-0.1300147473812103,-0.9911264777183533,2.626911163330078,18.16090774536133,-39.61802673339844,-1,2,1047654.398757167,1,2,1617673451.987926,0,0,0,0,0,0,0,0,0,1047652.899436,0,-0.1770325,98.1575,1617673453.012811,587422867,1685438189,0,0,1,1617673452.00491,1,0.12,1617673453.342309,-22.34159,-30.48412,0
1617673453.380547,42,0,0,0,0,0,0,0,0,0,1617673453.360668,2.688497543334961,18.16381072998047,-39.63690948486328,347.7647399902344,354.7943115234375,15.83383655548096,1047655.776792167,0.0333709716796875,-0.1391754150390625,-1.0068359375,1047655.755623167,0.01509559620171785,0.07838029414415359,-0.02905002795159817,1047655.736049167,14.11036682128906,52.83798217773438,-110.1254577636719,1047655.744416167,-0.3123365082550178,0.03049616133065563,0.1299820193979921,-0.01571314968168736,0.06179317459464073,-0.02986733429133892,-0.00604904443025589,-0.02036228775978088,-0.01355075836181641,2,0.06651395667632437,0.00493009881359326,-0.1542096351096682,0.9857844710344752,0.03023421578109264,-0.1296163201332092,-0.9911031723022461,2.649528503417969,18.19675827026367,-39.66190338134766,-1,2,1047654.398757167,1,2,1617673451.987926,0,0,0,0,0,0,0,0,0,1047652.899436,0,-0.1770325,98.1575,1617673453.012811,587422867,1685438189,0,0,1,1617673452.00491,1,0.12,1617673453.375085,-22.34159,-30.37392,0
1617673453.41048,43,0,0,0,0,0,0,0,0,0,1617673453.400763,2.677726745605469,18.11160659790039,-39.64458465576172,347.8102722167969,354.83984375,15.83396148681641,1047655.810414167,0.0418243408203125,-0.129638671875,-1.031524658203125,1047655.789245167,0.05860898643732071,0.06175923720002174,-0.01837501302361488,1047655.796039167,14.08908081054688,52.75607299804688,-110.2257080078125,1047655.744416167,-0.3123365082550178,0.03049616133065563,0.1299820193979921,-0.01571314968168736,0.06179317459464073,-0.02986733429133892,-0.00604904443025589,-0.02036228775978088,-0.01355075836181641,2,0.06651395667632437,0.00493009881359326,-0.1542096351096682,0.9857844710344752,0.03023421578109264,-0.1296163201332092,-0.9911031723022461,2.649528503417969,18.19675827026367,-39.66190338134766,-1,2,1047654.398757167,1,2,1617673451.987926,0,0,0,0,0,0,0,0,0,1047652.899436,0,-0.1770325,98.1575,1617673453.012811,587422867,1685438189,0,0,1,1617673452.00491,1,0.12,1617673453.408034,-22.34159,-30.80005,0
1617673453.450449,44,0,0,0,0,0,0,0,0,0,1617673453.441009,2.732277870178223,18.06203079223633,-39.87566375732422,347.8759460449219,354.905517578125,15.83416652679443,1047655.844037167,0.03228759765625,-0.134429931640625,-0.997283935546875,1047655.822868167,0.07997073233127594,-0.04540263488888741,-0.03032541461288929,1047655.796039167,14.08908081054688,52.75607299804688,-110.2257080078125,1047655.804189167,-0.313635168538992,0.03345238224964918,0.1321596420386176,0.06248145550489426,-0.003706320654600859,-0.0216636061668396,0.00799846276640892,-0.00077781081199646,-0.03918218612670898,2,0.06781876157963977,0.006173017430893071,-0.1547221294428525,0.9856082526769202,0.03315448015928268,-0.1317752599716187,-0.990725040435791,2.678086280822754,18.13059234619141,-39.80909729003906,-1,2,1047654.398757167,1,2,1617673451.987926,0,0,0,0,0,0,0,0,0,1047652.899436,0,-0.1770325,98.1575,1617673453.012811,587422867,1685438189,0,0,1,1617673452.00491,1,0.12,1617673453.44164,-22.34159,-31.07021,0
1617673453.482793,45,0,0,0,0,0,0,0,0,0,1617673453.480326,2.628955841064453,18.12048721313477,-39.96274566650391,347.9699401855469,354.99951171875,15.83439350128174,1047655.877658167,0.0284576416015625,-0.1419677734375,-0.9816131591796875,1047655.856489167,0.0427277572453022,-0.04956036061048508,-0.0412512980401516,1047655.856028167,14.09439086914062,52.67271423339844,-110.2923431396484,1047655.863961167,-0.3156589207572917,0.03073560213112267,0.1359063105056854,0.0296209491789341,-0.0571245551109314,-0.04226300865411758,0.001855453476309776,-0.002954632043838501,-0.005340218544006348,2,0.06945875989508285,0.004470108141541432,-0.1557632728760266,0.9853391958771699,0.03044739365577698,-0.1354883164167404,-0.9903110265731812,2.633706092834473,18.16067123413086,-39.8994140625,-1,2,1047654.398757167,1,2,1617673451.987926,0,0,0,0,0,0,0,0,0,1047652.899436,0,-0.1770325,98.1575,1617673453.012811,587422867,1685438189,0,0,1,1617673452.00491,1,0.12,1617673453.482634,-22.34159,-31.4591,0
1617673453.509976,46,0,0,0,0,0,0,0,0,0,1617673453.500296,2.562480926513672,18.1093635559082,-39.98662567138672,348.02099609375,355.0505676269531,15.83448600769043,1047655.911280167,0.029266357421875,-0.144927978515625,-0.976226806640625,1047655.890110167,0.04374029114842415,0.007733819540590048,-0.04305878654122353,1047655.856028167,14.09439086914062,52.67271423339844,-110.2923431396484,1047655.863961167,-0.3156589207572917,0.03073560213112267,0.1359063105056854,0.0296209491789341,-0.0571245551109314,-0.04226300865411758,0.001855453476309776,-0.002954632043838501,-0.005340218544006348,2,0.06945875989508285,0.004470108141541432,-0.1557632728760266,0.9853391958771699,0.03044739365577698,-0.1354883164167404,-0.9903110265731812,2.633706092834473,18.16067123413086,-39.8994140625,-1,2,1047654.398757167,1,2,1617673451.987926,0,0,0,0,0,0,0,0,0,1047652.899436,0,-0.1770325,98.1575,1617673453.012811,587422867,1685438189,0,0,1,1617673452.00491,1,0.12,1617673453.508321,-22.34159,-32.12968,0
1617673453.550363,47,0,0,0,0,0,0,0,0,0,1617673453.540174,2.66331672668457,17.80767440795898,-40.11337280273438,348.0968627929688,355.1264343261719,15.83460998535156,1047655.944903167,0.03363037109375,-0.1504364013671875,-0.9925537109375,1047655.923734167,0.07575681060552597,0.04048244655132294,-0.03346794471144676,1047655.916020167,13.96528625488281,52.48783874511719,-110.3353881835938,1047655.923734167,-0.3181330556737395,0.03182205108990904,0.137671142773957,0.06443819403648376,0.03518542647361755,-0.0315561331808567,0.003274384886026382,-0.008774638175964355,-0.001631855964660645,2,0.07041848206489348,0.004778959026179353,-0.1569209501755584,0.9850858762767151,0.03151563927531242,-0.1372366696596146,-0.9900367856025696,2.583565711975098,17.81447601318359,-39.9600830078125,-1,2,1047654.398757167,1,2,1617673451.987926,0,0,0,0,0,0,0,0,0,1047652.899436,0,-0.1770325,98.1575,1617673453.012811,587422867,1685438189,0,0,1,1617673452.00491,1,0.12,1617673453.550342,-22.34159,-29.05755,0
1617673453.579662,48,0,0,0,0,0,0,0,0,0,1617673453.560458,2.659730911254883,17.80815887451172,-40.08713531494141,348.1211242675781,355.1506958007812,15.8346700668335,1047655.978524167,0.034332275390625,-0.1428070068359375,-0.995147705078125,1047655.957355167,0.06050409004092216,0.0247277170419693,-0.02229864709079266,1047655.976007167,14.23255920410156,52.20677185058594,-110.4502105712891,1047655.923734167,-0.3181330556737395,0.03182205108990904,0.137671142773957,0.06443819403648376,0.03518542647361755,-0.0315561331808567,0.003274384886026382,-0.008774638175964355,-0.001631855964660645,2,0.07041848206489348,0.004778959026179353,-0.1569209501755584,0.9850858762767151,0.03151563927531242,-0.1372366696596146,-0.9900367856025696,2.583565711975098,17.81447601318359,-39.9600830078125,-1,2,1047654.398757167,1,2,1617673451.987926,0,0,0,0,0,0,0,0,0,1047652.899436,0,-0.1770325,98.1575,1617673453.012811,587422867,1685438189,0,0,1,1617673452.00491,1,0.12,1617673453.573845,-22.34159,-29.42147,0
1617673453.61936,49,0,0,0,0,0,0,0,0,0,1617673453.599959,2.740523338317871,17.76909255981445,-40.25435638427734,348.1827697753906,355.2123413085938,15.83479118347168,1047656.012148167,0.02630615234375,-0.1392059326171875,-0.9824066162109375,1047655.990976167,0.02680551446974277,-0.01120498403906822,-0.03427141904830933,1047655.976007167,14.23255920410156,52.20677185058594,-110.4502105712891,1047655.983506167,-0.3195595339096153,0.033113847171344,0.1407365532207102,0.01966212689876556,-0.01200430281460285,-0.02822545357048512,0.0009567141532897949,-0.002015739679336548,-0.007301807403564453,2,0.07203269619877681,0.005119951323794322,-0.1575360430132426,0.984869265896225,0.03278045728802681,-0.1402724236249924,-0.989570140838623,2.774255752563477,17.73490905761719,-40.14694976806641,-1,2,1047654.398757167,1,2,1617673451.987926,0,0,0,0,0,0,0,0,0,1047652.899436,0,-0.1770325,98.1575,1617673453.012811,587422867,1685438189,0,0,1,1617673452.00491,1,0.12,1617673453.614813,-22.34159,-30.17532,0
1617673453.649856,50,0,0,0,0,0,0,0,0,0,1617673453.639772,2.702059745788574,17.76416778564453,-40.22074127197266,348.2892456054688,355.3188171386719,15.8349142074585,1047656.045769167,0.027374267578125,-0.1415252685546875,-0.980682373046875,1047656.024600167,-0.001570466090925038,0.02086053974926472,-0.05164721608161926,1047656.035991167,14.1416015625,52.36834716796875,-110.646728515625,1047655.983506167,-0.3195595339096153,0.033113847171344,0.1407365532207102,0.01966212689876556,-0.01200430281460285,-0.02822545357048512,0.0009567141532897949,-0.002015739679336548,-0.007301807403564453,2,0.07203269619877681,0.005119951323794322,-0.1575360430132426,0.984869265896225,0.03278045728802681,-0.1402724236249924,-0.989570140838623,2.774255752563477,17.73490905761719,-40.14694976806641,-1,2,1047654.398757167,1,2,1617673451.987926,0,0,0,0,0,0,0,0,0,1047652.899436,0,-0.1770325,98.1575,1617673453.012811,587422867,1685438189,0,0,1,1617673452.00491,1,0.12,1617673453.641334,-22.34159,-30.42608,0
1617673453.679255,51,0,0,0,0,0,0,0,0,0,1617673453.659709,2.617250442504883,17.79960632324219,-40.31126403808594,348.3519287109375,355.3815002441406,15.83497714996338,1047656.079390167,0.0323944091796875,-0.1500244140625,-0.980072021484375,1047656.058221167,0.02306537143886089,0.06306205689907074,-0.04691797494888306,1047656.035991167,14.1416015625,52.36834716796875,-110.646728515625,1047656.043279167,-0.3221934093169688,0.03376387278565127,0.1409598811933557,-0.006827640812844038,0.03347369655966759,-0.05829179286956787,-0.006826583296060562,-8.565187454223633e-05,0.009307920932769775,2,0.07220090137817543,0.005327116974332753,-0.1588063753399816,0.9846518359620164,0.03342263773083687,-0.1404935419559479,-0.9895173311233521,2.619078636169434,17.77523803710938,-40.22587585449219,-1,2,1047654.398757167,1,2,1617673451.987926,0,0,0,0,0,0,0,0,0,1047652.899436,0,-0.1770325,98.1575,1617673453.012811,587422867,1685438189,0,0,1,1617673452.00491,1,0.12,1617673453.674634,-22.34159,-30.39213,0
1617673453.722932,52,0,0,0,0,0,0,0,0,0,1617673453.719524,2.813337326049805,17.59303283691406,-40.25611114501953,348.4144287109375,355.4440002441406,15.83516407012939,1047656.113014167,0.0474853515625,-0.14306640625,-1.0047607421875,1047656.091844167,0.06333662569522858,0.08055450022220612,-0.02097479067742825,1047656.095977167,14.1480712890625,52.26885986328125,-110.6536712646484,1047656.103051167,-0.324008261626571,0.03773330048330873,0.1427820973251104,0.04552252590656281,0.03888506814837456,-0.01247576903551817,0.008100200444459915,0.001275762915611267,-0.01593124866485596,2,0.07341908200555225,0.007067786326142262,-0.1595288514860082,0.9844339921607022,0.03734046220779419,-0.1422974467277527,-0.9891193509101868,2.771127700805664,17.58576202392578,-40.24092864990234,-1,2,1047654.398757167,1,2,1617673451.987926,0,0,0,0,0,0,0,0,0,1047652.899436,0,-0.1770325,98.1575,1617673453.012811,587422867,1685438189,0,0,1,1617673452.00491,1,0.12,1617673453.708106,-22.34159,-30.76596,0
1617673453.749059,53,0,0,0,0,0,0,0,0,0,1617673453.739633,2.849617958068848,17.60805511474609,-40.32263946533203,348.4046325683594,355.4342041015625,15.83522701263428,1047656.146635167,0.0417022705078125,-0.134246826171875,-0.9932861328125,1047656.125466167,0.001386974239721894,0.008128234185278416,0.003955326974391937,1047656.095977167,14.1480712890625,52.26885986328125,-110.6536712646484,1047656.103051167,-0.324008261626571,0.03773330048330873,0.1427820973251104,0.04552252590656281,0.03888506814837456,-0.01247576903551817,0.008100200444459915,0.001275762915611267,-0.01593124866485596,2,0.07341908200555225,0.007067786326142262,-0.1595288514860082,0.9844339921607022,0.03734046220779419,-0.1422974467277527,-0.9891193509101868,2.771127700805664,17.58576202392578,-40.24092864990234,-1,2,1047654.398757167,1,2,1617673451.987926,0,0,0,0,0,0,0,0,0,1047652.899436,0,-0.1770325,98.1575,1617673453.012811,587422867,1685438189,0,0,1,1617673452.00491,1,0.12,1617673453.741421,-22.34159,-29.83338,0
1617673453.78294,54,0,0,0,0,0,0,0,0,0,1617673453.779198,2.776945114135742,17.77938461303711,-40.18775939941406,348.408447265625,355.4380187988281,15.83535194396973,1047656.180256167,0.033599853515625,-0.120849609375,-0.973480224609375,1047656.159087167,-0.05310556292533875,-0.02075907401740551,-0.003775829682126641,1047656.155958167,14.31956481933594,52.2149658203125,-110.6325531005859,1047656.162824167,-0.3237514645408872,0.03704372350270026,0.141586695288269,-0.06198898702859879,-0.02789580821990967,-0.006143183447420597,0.001070324331521988,0.01551905274391174,0.006739675998687744,2,0.07277504117254521,0.00683463147227701,-0.1594454958349846,0.9844969475985147,0.03666465356945992,-0.1411141157150269,-0.9893141388893127,2.819229125976562,17.67802429199219,-40.17226409912109,-1,2,1047654.398757167,1,2,1617673451.987926,0,0,0,0,0,0,0,0,0,1047652.899436,0,-0.1770325,98.1575,1617673453.012811,587422867,1685438189,0,0,1,1617673452.00491,1,0.12,1617673453.7828,-22.34159,-27.93205,0
1617673453.818646,55,0,0,0,0,0,0,0,0,0,1617673453.799185,2.780633926391602,17.76458740234375,-40.23642730712891,348.44384765625,355.4734191894531,15.83541679382324,1047656.213879167,0.0362701416015625,-0.1439971923828125,-0.962615966796875,1047656.192710167,-0.01511903200298548,0.01989700831472874,-0.03444798663258553,1047656.215942167,14.30516052246094,52.47694396972656,-110.5333251953125,1047656.162824167,-0.3237514645408872,0.03704372350270026,0.141586695288269,-0.06198898702859879,-0.02789580821990967,-0.006143183447420597,0.001070324331521988,0.01551905274391174,0.006739675998687744,2,0.07277504117254521,0.00683463147227701,-0.1594454958349846,0.9844969475985147,0.03666465356945992,-0.1411141157150269,-0.9893141388893127,2.819229125976562,17.67802429199219,-40.17226409912109,-1,2,1047654.398757167,1,2,1617673451.987926,0,0,0,0,0,0,0,0,0,1047652.899436,0,-0.1770325,98.1575,1617673453.012811,587422867,1685438189,0,0,1,1617673452.00491,1,0.12,1617673453.808452,-22.34159,-28.39621,0
1617673453.854718,56,0,0,0,0,0,0,0,0,0,1617673453.839225,2.817693710327148,17.86816787719727,-40.19287872314453,348.4574279785156,355.4869995117188,15.83554267883301,1047656.247501167,0.03912353515625,-0.1443939208984375,-0.9862518310546875,1047656.226332167,-0.03167057782411575,0.0772806704044342,0.004268248099833727,1047656.215942167,14.30516052246094,52.47694396972656,-110.5333251953125,1047656.222597167,-0.3250497066553892,0.03878432934983474,0.1393590117103039,-0.03979754820466042,0.07105571031570435,0.0009492792305536568,-0.001731842756271362,-0.01067349314689636,0.02381652593612671,2,0.07182275083769601,0.007825357323448748,-0.1600550182481154,0.9844606544037038,0.03839869797229767,-0.1389083713293076,-0.9895604848861694,2.861607551574707,17.85734176635742,-40.15976715087891,-1,2,1047654.398757167,1,2,1617673451.987926,0,0,0,0,0,0,0,0,0,1047652.899436,0,-0.1770325,98.1575,1617673453.012811,587422867,1685438189,0,0,1,1617673452.00491,1,0.12,1617673453.854699,-23.45615,-29.1144,0
1617673453.889014,57,0,0,0,0,0,0,0,0,0,1617673453.878988,2.942453384399414,17.77877426147461,-40.01431274414062,348.3976440429688,355.4272155761719,15.83567047119141,1047656.281124167,0.0374298095703125,-0.12493896484375,-0.9978485107421875,1047656.259953167,-0.0640956312417984,0.03219601884484291,0.02317509427666664,1047656.275936167,14.40797424316406,52.35462951660156,-110.3692016601562,1047656.222597167,-0.3250497066553892,0.03878432934983474,0.1393590117103039,-0.03979754820466042,0.07105571031570435,0.0009492792305536568,-0.001731842756271362,-0.01067349314689636,0.02381652593612671,2,0.07182275083769601,0.007825357323448748,-0.1600550182481154,0.9844606544037038,0.03839869797229767,-0.1389083713293076,-0.9895604848861694,2.861607551574707,17.85734176635742,-40.15976715087891,-1,2,1047654.398757167,1,2,1617673451.987926,0,0,0,0,0,0,0,0,0,1047653.848752,0,-0.1770325,98.1575,1617673453.012811,587422867,1685438189,0,0,1,1617673452.00491,1,0.12,1617673453.874015,-24.01343,-29.24707,0
1617673453.918323,58,0,0,0,0,0,0,0,0,0,1617673453.898771,3.03176212310791,17.7779426574707,-39.94520568847656,348.398681640625,355.4282531738281,15.83573532104492,1047656.314744792,0.03594970703125,-0.127532958984375,-0.9997100830078125,1047656.293576167,-0.09173578023910522,0.009208145551383495,-0.01390489656478167,1047656.275936167,14.40797424316406,52.35462951660156,-110.3692016601562,1047656.282369167,-0.3237580637717927,0.04098299525384475,0.1347329351153,-0.09509708732366562,0.004915563855320215,-0.002162907272577286,-0.00317041203379631,0.009386748075485229,-0.007743358612060547,2,0.06971646068554202,0.009329146300036902,-0.1594123490589966,0.9847031258019103,0.04060021042823792,-0.1343256682157516,-0.990105152130127,3.037289619445801,17.76324844360352,-39.96484375,-1,2,1047654.398757167,1,2,1617673451.987926,0,0,0,0,0,0,0,0,0,1047653.848752,0,-0.1770325,98.1575,1617673453.012811,587422867,1685438189,0,0,1,1617673452.00491,1,0.12,1617673453.914949,-25.12798,-29.97152,0
1617673453.948419,59,0,0,0,0,0,0,0,0,0,1617673453.938602,2.979167938232422,17.96266555786133,-39.99710083007812,348.437255859375,355.4668273925781,15.83586502075195,1047656.348366792,0.0344390869140625,-0.1325531005859375,-1.001907348632812,1047656.327196792,-0.05388480424880981,0.01422847062349319,-0.02517139911651611,1047656.335919792,14.41693115234375,52.58055114746094,-110.397705078125,1047656.282369167,-0.3237580637717927,0.04098299525384475,0.1347329351153,-0.09509708732366562,0.004915563855320215,-0.002162907272577286,-0.00317041203379631,0.009386748075485229,-0.007743358612060547,2,0.06971646068554202,0.009329146300036902,-0.1594123490589966,0.9847031258019103,0.04060021042823792,-0.1343256682157516,-0.990105152130127,3.037289619445801,17.76324844360352,-39.96484375,-1,2,1047654.398757167,1,2,1617673451.987926,0,0,0,0,0,0,0,0,0,1047653.848752,0,-0.1770325,98.1575,1617673453.012811,587422867,1685438189,0,0,1,1617673452.00491,1,0.12,1617673453.941435,-25.51034,-30.40759,0
