loggingTime,loggingSample,locationTimestamp_since1970,locationLatitude,locationLongitude,locationAltitude,locationSpeed,locationCourse,locationVerticalAccuracy,locationHorizontalAccuracy,locationFloor,locationHeadingTimestamp_since1970,locationHeadingX,locationHeadingY,locationHeadingZ,locationTrueHeading,locationMagneticHeading,locationHeadingAccuracy,accelerometerTimestamp_sinceReboot,accelerometerAccelerationX,accelerometerAccelerationY,accelerometerAccelerationZ,gyroTimestamp_sinceReboot,gyroRotationX,gyroRotationY,gyroRotationZ,magnetometerTimestamp_sinceReboot,magnetometerX,magnetometerY,magnetometerZ,motionTimestamp_sinceReboot,motionYaw,motionRoll,motionPitch,motionRotationRateX,motionRotationRateY,motionRotationRateZ,motionUserAccelerationX,motionUserAccelerationY,motionUserAccelerationZ,motionAttitudeReferenceFrame,motionQuaternionX,motionQuaternionY,motionQuaternionZ,motionQuaternionW,motionGravityX,motionGravityY,motionGravityZ,motionMagneticFieldX,motionMagneticFieldY,motionMagneticFieldZ,motionHeading,motionMagneticFieldCalibrationAccuracy,activityTimestamp_sinceReboot,activity,activityActivityConfidence,activityActivityStartDate,pedometerStartDate,pedometerNumberofSteps,pedometerAverageActivePace,pedometerCurrentPace,pedometerCurrentCadence,pedometerDistance,pedometerFloorAscended,pedometerFloorDescended,pedometerEndDate,altimeterTimestamp_sinceReboot,altimeterReset,altimeterRelativeAltitude,altimeterPressure,IP_Timestamp_since1970,IP_en0,IP_pdp_ip0,deviceID,deviceOrientationTimeStamp_since1970,deviceOrientation,batteryTimeStamp_since1970,batteryState,batteryLevel,avAudioRecorder_Timestamp_since1970,avAudioRecorderPeakPower,avAudioRecorderAveragePower,label
1617674073.783323,1,0,0,0,0,0,0,0,0,0,1617674073.765869,4.213644027709961,12.7343864440918,-37.78540802001953,324.5031127929688,331.5314636230469,17.2716064453125,1048276.168811167,-0.031402587890625,-0.100006103515625,-0.96319580078125,1048276.147642167,0.1068361699581146,0.09038102626800537,-0.071307472884655,1048276.117150167,15.73811340332031,47.1737060546875,-108.3867340087891,1048276.121493167,0.09456926809140688,-0.03006771306840758,0.07898729643195922,-0.08599203824996948,-0.1950629651546478,0.02876806072890759,0.01704525947570801,0.03711140155792236,-0.05987340211868286,2,0.04014482217074065,-0.01313872783815316,0.04663192265270322,0.9980185795558618,-0.02996945008635521,-0.07890518754720688,-0.9964315295219421,4.322644233703613,12.614990234375,-37.85118865966797,-1,2,1048271.893233875,1,2,1617674069.482403,1617673410.617,100,1.502572,0,0,64.93813,0,0,1617674072.032722,1048273.626553,0,-0.3937073,98.16005,0,0,0,0,0,1,1617674073.754547,1,0.1,1617674073.749303,-21.01683,-29.98456,0
1617674073.815414,2,0,0,0,0,0,0,0,0,0,1617674073.805812,4.418502807617188,12.55644226074219,-37.58695220947266,324.5067749023438,331.5351257324219,17.27154541015625,1048276.202435167,-0.0109100341796875,-0.12078857421875,-1.0223388671875,1048276.181265167,0.1487995982170105,0.2985230386257172,0.0136018292978406,1048276.177125167,15.66897583007812,47.30557250976562,-108.1858673095703,1048276.181265167,0.0924626688887465,-0.0239448347068707,0.08545796500304519,0.1374972760677338,0.2932302355766296,0.01550761051476002,-0.00310710072517395,-0.0373571589589119,0.01654237508773804,2,0.04322006798108494,-0.009974451648966567,0.04565852138613397,0.9979718559156046,-0.02385517209768295,-0.08535398542881012,-0.996065080165863,4.326320648193359,12.6434440612793,-37.69537353515625,-1,2,1048271.893233875,1,2,1617674069.482403,1617673410.617,100,1.502572,0,0,64.93813,0,0,1617674072.032722,1048273.626553,0,-0.3937073,98.16005,0,0,0,0,0,1,1617674073.754547,1,0.1,1617674073.783913,-21.01683,-28.21798,0
1617674073.845214,3,0,0,0,0,0,0,0,0,0,1617674073.825547,4.595015525817871,12.43607711791992,-37.78524017333984,324.4100341796875,331.4383850097656,17.27151489257812,1048276.236056167,0.006805419921875,-0.0814971923828125,-1.076339721679688,1048276.214887167,0.04097992181777954,0.1630650907754898,0.08519931882619858,1048276.237107167,16.28117370605469,47.0126953125,-108.1120758056641,1048276.181265167,0.0924626688887465,-0.0239448347068707,0.08545796500304519,0.1374972760677338,0.2932302355766296,0.01550761051476002,-0.00310710072517395,-0.0373571589589119,0.01654237508773804,2,0.04322006798108494,-0.009974451648966567,0.04565852138613397,0.9979718559156046,-0.02385517209768295,-0.08535398542881012,-0.996065080165863,4.326320648193359,12.6434440612793,-37.69537353515625,-1,2,1048271.893233875,1,2,1617674069.482403,1617673410.617,100,1.502572,0,0,64.93813,0,0,1617674072.032722,1048273.626553,0,-0.3937073,98.16005,0,0,0,0,0,1,1617674073.754547,1,0.1,1617674073.816231,-19.36786,-23.28857,0
1617674073.891932,4,0,0,0,0,0,0,0,0,0,1617674073.88551,4.720267295837402,12.32305908203125,-37.74010467529297,324.2001342773438,331.2284851074219,17.2716064453125,1048276.269680167,-0.0023040771484375,-0.0753326416015625,-1.043426513671875,1048276.248508167,0.03067242540419102,-0.1233427077531815,0.05382141843438148,1048276.237107167,16.28117370605469,47.0126953125,-108.1120758056641,1048276.241038167,0.09700142832538572,-0.01514816510187683,0.08665859570246243,0.01842020079493523,-0.07698536664247513,0.07283041626214981,0.01991252601146698,0.006273716688156128,-0.07424032688140869,2,0.04363042069107755,-0.005458042689982439,0.04810712132513989,0.997873879820504,-0.01509074401110411,-0.08655017614364624,-0.9961332082748413,4.859450340270996,12.33688735961914,-37.60842132568359,-1,2,1048271.893233875,1,2,1617674069.482403,1617673410.617,100,1.502572,0,0,64.93813,0,0,1617674072.032722,1048273.626553,0,-0.3937073,98.16005,0,0,0,0,0,1,1617674073.754547,1,0.1,1617674073.848714,-19.06643,-23.54799,0
1617674073.914889,5,0,0,0,0,0,0,0,0,0,1617674073.905458,4.57225513458252,12.35070419311523,-37.74055480957031,324.1536254882812,331.1819763183594,17.27165412902832,1048276.303301167,-0.0149993896484375,-0.0933380126953125,-0.982025146484375,1048276.282132167,0.05635941401124001,-0.1744889765977859,0.03327806293964386,1048276.297080167,15.98623657226562,46.97306823730469,-108.2004547119141,1048276.241038167,0.09700142832538572,-0.01514816510187683,0.08665859570246243,0.01842020079493523,-0.07698536664247513,0.07283041626214981,0.01991252601146698,0.006273716688156128,-0.07424032688140869,2,0.04363042069107755,-0.005458042689982439,0.04810712132513989,0.997873879820504,-0.01509074401110411,-0.08655017614364624,-0.9961332082748413,4.859450340270996,12.33688735961914,-37.60842132568359,-1,2,1048271.893233875,1,2,1617674069.482403,1617673410.617,100,1.502572,0,0,64.93813,0,0,1617674072.032722,1048273.626553,0,-0.3937073,98.16005,0,0,0,0,0,1,1617674073.754547,1,0.1,1617674073.902921,-16.7888,-24.24059,0
1617674073.949976,6,0,0,0,0,0,0,0,0,0,1617674073.945112,4.436125755310059,12.21425628662109,-37.68180084228516,323.9808349609375,331.0091857910156,17.27179145812988,1048276.336922167,-0.0176849365234375,-0.083038330078125,-0.98590087890625,1048276.315753167,0.1314198076725006,0.03917643055319786,0.07920906692743301,1048276.297080167,15.98623657226562,46.97306823730469,-108.2004547119141,1048276.300811167,0.09963733419931189,-0.02457825878424495,0.09016357845562227,0.07514870911836624,-0.05374542623758316,0.06049538776278496,0.008530527353286743,-0.002655640244483948,0.01011782884597778,2,0.04561854575813645,-0.01001704743459446,0.04919058332674275,0.9976967887182765,-0.02447595819830894,-0.09004146605730057,-0.9956372380256653,4.546079635620117,12.30269241333008,-37.74266052246094,-1,2,1048271.893233875,1,2,1617674069.482403,1617673410.617,100,1.502572,0,0,64.93813,0,0,1617674072.032722,1048273.626553,0,-0.3937073,98.16005,0,0,0,0,0,1,1617674073.754547,1,0.1,1617674073.916036,-16.7888,-24.99194,0
1617674073.984624,7,0,0,0,0,0,0,0,0,0,1617674073.96505,4.516884803771973,12.17243194580078,-37.7415771484375,323.8949279785156,330.9232788085938,17.27186584472656,1048276.370546167,-0.013916015625,-0.0858001708984375,-0.9749755859375,1048276.349377167,0.2222477197647095,0.1093616411089897,0.07032609730958939,1048276.357051167,15.9736328125,46.75653076171875,-108.1965789794922,1048276.360584167,0.1041925380322801,-0.01992708009716941,0.09882922490667446,0.1881438195705414,0.07810195535421371,0.05669425055384636,0.006644938141107559,0.01549279689788818,0.008930385112762451,2,0.04984323016039548,-0.007365734645304295,0.051515095476585,0.9974004004557451,-0.01982853002846241,-0.0986684188246727,-0.9949228167533875,4.545429229736328,12.02941131591797,-37.61436462402344,-1,2,1048276.349792167,1,2,1617674073.938962,1617673410.617,100,1.502572,0,0,64.93813,0,0,1617674072.032722,1048273.626553,0,-0.3937073,98.16005,0,0,0,0,0,1,1617674073.754547,1,0.1,1617674073.98281,-16.7888,-26.29559,0
1617674074.019867,8,0,0,0,0,0,0,0,0,0,1617674074.004932,4.614640235900879,11.86393737792969,-37.91475677490234,323.7492065429688,330.7775573730469,17.27190208435059,1048276.404167167,-0.0120849609375,-0.1121978759765625,-0.9836273193359375,1048276.382998167,0.08501795679330826,0.0962599590420723,0.05782947689294815,1048276.357051167,15.9736328125,46.75653076171875,-108.1965789794922,1048276.360584167,0.1041925380322801,-0.01992708009716941,0.09882922490667446,0.1881438195705414,0.07810195535421371,0.05669425055384636,0.006644938141107559,0.01549279689788818,0.008930385112762451,2,0.04984323016039548,-0.007365734645304295,0.051515095476585,0.9974004004557451,-0.01982853002846241,-0.0986684188246727,-0.9949228167533875,4.545429229736328,12.02941131591797,-37.61436462402344,-1,2,1048276.349792167,1,2,1617674073.938962,1617673410.617,100,1.502572,0,0,64.93813,0,0,1617674072.032722,1048273.626553,0,-0.3937073,98.16005,0,0,0,0,0,1,1617674073.754547,1,0.1,1617674074.019846,-16.7888,-22.73932,0
1617674074.044672,9,0,0,0,0,0,0,0,0,0,1617674074.024954,4.760706901550293,11.78610229492188,-38.02536773681641,323.5986938476562,330.6270446777344,17.27186965942383,1048276.437789167,-0.02496337890625,-0.0806884765625,-0.99383544921875,1048276.416620167,0.06048145145177841,0.03966885060071945,0.1560955941677094,1048276.417027167,16.21907043457031,46.38192749023438,-108.4632415771484,1048276.420357167,0.1098595333037345,-0.01561414446081131,0.1025229707951731,0.05924816429615021,0.02392294630408287,0.1624368131160736,0.003675450570881367,0.00389380007982254,-0.01997476816177368,2,0.05158825486475553,-0.00497193077731951,0.05442893898531359,0.9971717089334664,-0.01553152501583099,-0.102343462407589,-0.9946278929710388,4.792109489440918,11.8608512878418,-37.99466705322266,-1,2,1048276.349792167,1,2,1617674073.938962,1617673410.617,100,1.502572,0,0,64.93813,0,0,1617674072.032722,1048273.626553,0,-0.3937073,98.16005,0,0,0,0,0,1,1617674073.754547,1,0.1,1617674074.019846,-16.7888,-22.73932,0
1617674074.084235,10,0,0,0,0,0,0,0,0,0,1617674074.06468,4.830445289611816,11.7292594909668,-38.09258270263672,323.2427978515625,330.2711486816406,17.27181434631348,1048276.471412167,-0.0360870361328125,-0.0626373291015625,-1.006637573242188,1048276.450243167,0.05703958496451378,0.09357522428035736,0.1313937157392502,1048276.476994167,16.32603454589844,46.34959411621094,-108.6209564208984,1048276.420357167,0.1098595333037345,-0.01561414446081131,0.1025229707951731,0.05924816429615021,0.02392294630408287,0.1624368131160736,0.003675450570881367,0.00389380007982254,-0.01997476816177368,2,0.05158825486475553,-0.00497193077731951,0.05442893898531359,0.9971717089334664,-0.01553152501583099,-0.102343462407589,-0.9946278929710388,4.792109489440918,11.8608512878418,-37.99466705322266,-1,2,1048276.349792167,1,2,1617674073.938962,1617673410.617,100,1.502572,0,0,64.93813,0,0,1617674072.032722,1048273.626553,0,-0.3937073,98.16005,0,0,0,0,0,1,1617674073.754547,1,0.1,1617674074.081889,-5.220092,-7.115499,0
1617674074.114057,11,0,0,0,0,0,0,0,0,0,1617674074.104637,5.051867485046387,11.67406463623047,-38.15009307861328,323.0699768066406,330.0983276367188,17.27176284790039,1048276.505034167,-0.026336669921875,-0.055328369140625,-1.064422607421875,1048276.483864167,-0.03390230610966682,0.04883145540952682,0.05317826569080353,1048276.476994167,16.32603454589844,46.34959411621094,-108.6209564208984,1048276.480129167,0.1177176030004644,-0.01218245803299016,0.1036113839456943,-0.04887121170759201,0.07189979404211044,0.07106970250606537,-0.01672228425741196,0.04449669271707535,-0.03360438346862793,2,0.05204972309546945,-0.003026444414233852,0.05842993953939035,0.9969291251047756,-0.01211682520806789,-0.1034260988235474,-0.9945633411407471,4.941937446594238,11.70831298828125,-38.12698364257812,-1,2,1048276.349792167,1,2,1617674073.938962,1617673410.617,100,1.502572,0,0,64.93813,0,0,1617674072.032722,1048273.626553,0,-0.3937073,98.16005,0,0,0,0,0,1,1617674073.754547,1,0.1,1617674074.081889,-5.220092,-7.115499,0
1617674074.154022,12,0,0,0,0,0,0,0,0,0,1617674074.144347,4.993006706237793,11.72173309326172,-38.31253051757812,323.2044372558594,330.2327880859375,17.27170753479004,1048276.538657167,-0.03704833984375,-0.11712646484375,-0.9843902587890625,1048276.517486167,-0.02102618850767612,-0.1890106648206711,-0.07771183550357819,1048276.536967167,16.38941955566406,46.3426513671875,-108.7517547607422,1048276.480129167,0.1177176030004644,-0.01218245803299016,0.1036113839456943,-0.04887121170759201,0.07189979404211044,0.07106970250606537,-0.01672228425741196,0.04449669271707535,-0.03360438346862793,2,0.05204972309546945,-0.003026444414233852,0.05842993953939035,0.9969291251047756,-0.01211682520806789,-0.1034260988235474,-0.9945633411407471,4.941937446594238,11.70831298828125,-38.12698364257812,-1,2,1048276.349792167,1,2,1617674073.938962,1617673410.617,100,1.502572,0,0,64.93813,0,0,1617674072.032722,1048273.626553,0,-0.3937073,98.16005,0,0,0,0,0,1,1617674073.754547,1,0.1,1617674074.149466,-5.220092,-10.30338,0
1617674074.191158,13,0,0,0,0,0,0,0,0,0,1617674074.184355,4.859435081481934,11.75171279907227,-38.27345275878906,323.2832641601562,330.3116149902344,17.27170753479004,1048276.572279167,-0.031707763671875,-0.1063690185546875,-1.030044555664062,1048276.551109167,-0.01374510675668716,0.03766988217830658,-0.02907319739460945,1048276.536967167,16.38941955566406,46.3426513671875,-108.7517547607422,1048276.539902167,0.115696158756256,-0.01885410658913338,0.1002745040954935,-0.05498598515987396,-0.05372007191181183,-0.04577101767063141,-0.01829004846513271,-0.01701987534761429,0.0104096531867981,2,0.05057453500942301,-0.00650193547569846,0.05726895216115979,0.9970557677404852,-0.01875828579068184,-0.1001065447926521,-0.9947999119758606,4.993006706237793,11.72173309326172,-38.31253051757812,-1,2,1048276.349792167,1,2,1617674073.938962,1617673410.617,100,1.502572,0,0,64.93813,0,0,1617674072.032722,1048273.626553,0,-0.3937073,98.16005,0,0,0,0,0,1,1617674073.754547,1,0.1,1617674074.149466,-5.220092,-10.30338,0
1617674074.214097,14,0,0,0,0,0,0,0,0,0,1617674074.204106,4.81482982635498,11.88129425048828,-38.31110382080078,323.3622131347656,330.3905639648438,17.27173614501953,1048276.605900167,-0.02099609375,-0.1208038330078125,-1.012832641601562,1048276.584731167,0.1730284988880157,0.03369271755218506,-0.0752156600356102,1048276.596941167,16.34727478027344,46.43565368652344,-108.6982421875,1048276.539902167,0.115696158756256,-0.01885410658913338,0.1002745040954935,-0.05498598515987396,-0.05372007191181183,-0.04577101767063141,-0.01829004846513271,-0.01701987534761429,0.0104096531867981,2,0.05057453500942301,-0.00650193547569846,0.05726895216115979,0.9970557677404852,-0.01875828579068184,-0.1001065447926521,-0.9947999119758606,4.993006706237793,11.72173309326172,-38.31253051757812,-1,2,1048276.349792167,1,2,1617674073.938962,1617673410.617,100,1.502572,0,0,64.93813,0,0,1617674072.032722,1048273.626553,0,-0.3937073,98.16005,0,0,0,0,0,1,1617674073.754547,1,0.1,1617674074.201597,-5.220092,-12.34715,0
1617674074.263609,15,0,0,0,0,0,0,0,0,0,1617674074.244087,4.912911415100098,11.63730621337891,-38.32927703857422,323.5211486816406,330.5494995117188,17.2718448638916,1048276.639524167,-0.0111541748046875,-0.135955810546875,-0.9854888916015625,1048276.618354167,0.1936775892972946,0.05929607897996902,-0.07689371705055237,1048276.596941167,16.34727478027344,46.43565368652344,-108.6982421875,1048276.599675167,0.1127655839785471,-0.01704482131868018,0.1024301175803674,0.190599262714386,0.0401989258825779,-0.09076730906963348,-0.007734056562185287,-0.01249496638774872,-0.0260615348815918,2,0.05158909470773699,-0.005612856095914352,0.05584140364932288,0.9970901477197496,-0.01695466227829456,-0.1022510975599289,-0.9946141242980957,4.883116722106934,11.84214782714844,-38.27364349365234,-1,2,1048276.349792167,1,2,1617674073.938962,1617673410.617,100,1.502572,0,0,64.93813,0,0,1617674072.032722,1048273.626553,0,-0.3937073,98.16005,0,0,0,0,0,1,1617674073.754547,1,0.1,1617674074.263593,-5.220092,-15.17856,0
1617674074.283751,16,0,0,0,0,0,0,0,0,0,1617674074.263817,4.980732917785645,11.53915786743164,-38.5419921875,323.5469360351562,330.5752868652344,17.27188491821289,1048276.673145167,-0.008575439453125,-0.1324462890625,-0.99761962890625,1048276.651976167,0.1704684048891068,0.09367801994085312,-0.02056066878139973,1048276.656909167,16.54519653320312,46.1240234375,-108.9608154296875,1048276.659448167,0.1099009456209647,-0.0136530735899564,0.113054114313397,0.1626239866018295,0.05518275499343872,-0.01697968877851963,0.00236554816365242,-0.02240991592407227,-0.002509117126464844,2,0.05678469961542685,-0.003702392724685352,0.05444872824310487,0.9968937195808272,-0.01356549374759197,-0.1128134429454803,-0.9935235977172852,5.071927070617676,11.52183532714844,-38.52719879150391,-1,2,1048276.668793167,2,0,1617674074.257963,1617673410.617,100,1.502572,0,0,64.93813,0,0,1617674072.032722,1048273.626553,0,-0.3937073,98.16005,0,0,0,0,0,1,1617674073.754547,1,0.1,1617674074.282827,-5.220092,-16.0027,0
1617674074.321979,17,0,0,0,0,0,0,0,0,0,1617674074.304007,5.128432273864746,11.27742004394531,-38.41800689697266,323.5582885742188,330.5866394042969,17.27185440063477,1048276.706766167,-0.0187835693359375,-0.1192169189453125,-0.9717864990234375,1048276.685597167,0.125168040394783,0.09611614793539047,-0.004327103961259127,1048276.656909167,16.54519653320312,46.1240234375,-108.9608154296875,1048276.659448167,0.1099009456209647,-0.0136530735899564,0.113054114313397,0.1626239866018295,0.05518275499343872,-0.01697968877851963,0.00236554816365242,-0.02240991592407227,-0.002509117126464844,2,0.05678469961542685,-0.003702392724685352,0.05444872824310487,0.9968937195808272,-0.01356549374759197,-0.1128134429454803,-0.9935235977172852,5.071927070617676,11.52183532714844,-38.52719879150391,-1,2,1048276.668793167,2,0,1617674074.257963,1617673410.617,100,1.502572,0,0,64.93813,0,0,1617674072.032722,1048273.626553,0,-0.3937073,98.16005,0,0,0,0,0,1,1617674073.754547,1,0.1,1617674074.321948,-5.220092,-15.02214,0
1617674074.353453,18,0,0,0,0,0,0,0,0,0,1617674074.344056,5.264954566955566,10.90848922729492,-38.46200561523438,323.5519409179688,330.5802917480469,17.27179336547852,1048276.740390167,-0.006011962890625,-0.09942626953125,-1.005126953125,1048276.719221167,0.08660279959440231,0.1869533807039261,-0.00256036315113306,1048276.716886167,16.64923095703125,45.64285278320312,-108.9618530273438,1048276.719221167,0.1098475302154921,-0.007390677599060594,0.1201728197829475,0.07529880851507187,0.1816601306200027,-0.0006539715686812997,-0.004366178065538406,0.008677765727043152,0.007287204265594482,2,0.06016179219714782,-0.0003865935373380015,0.05457514140119729,0.9966955345533615,-0.007337308954447508,-0.1198837831616402,-0.9927608370780945,5.21665096282959,11.05232620239258,-38.51305389404297,-1,2,1048276.668793167,2,0,1617674074.257963,1617673410.617,100,1.502572,0,0,64.93813,0,0,1617674072.032722,1048273.626553,0,-0.3937073,98.16005,0,0,0,0,0,1,1617674073.754547,1,0.1,1617674074.349447,-5.220092,-12.22208,0
1617674074.383504,19,0,0,0,0,0,0,0,0,0,1617674074.363561,5.375540733337402,10.76756286621094,-38.50614929199219,323.5722961425781,330.6006469726562,17.27176666259766,1048276.774011167,-0.0117645263671875,-0.0843963623046875,-0.9401092529296875,1048276.752842167,0.06517793983221054,0.03614548593759537,-0.03926484659314156,1048276.716886167,16.64923095703125,45.64285278320312,-108.9618530273438,1048276.719221167,0.1098475302154921,-0.007390677599060594,0.1201728197829475,0.07529880851507187,0.1816601306200027,-0.0006539715686812997,-0.004366178065538406,0.008677765727043152,0.007287204265594482,2,0.06016179219714782,-0.0003865935373380015,0.05457514140119729,0.9966955345533615,-0.007337308954447508,-0.1198837831616402,-0.9927608370780945,5.21665096282959,11.05232620239258,-38.51305389404297,-1,2,1048276.668793167,2,0,1617674074.257963,1617673410.617,100,1.502572,0,0,64.93813,0,0,1617674072.032722,1048273.626553,0,-0.3937073,98.16005,0,0,0,0,0,1,1617674073.754547,1,0.1,1617674074.383485,-5.220092,-12.32124,0
1617674074.430501,20,0,0,0,0,0,0,0,0,0,1617674074.423352,5.593932151794434,10.71846771240234,-38.43161773681641,323.82763671875,330.8559875488281,17.27173233032227,1048276.807635167,0.007415771484375,-0.1184844970703125,-1.006439208984375,1048276.786463167,-0.0477166548371315,0.1440479904413223,-0.09199783205986023,1048276.776853167,17.04454040527344,45.44236755371094,-108.9373474121094,1048276.778993167,0.1077559695972984,-0.002567682570437599,0.1233171275992818,-0.05109243839979172,0.1264467984437943,-0.09048245847225189,-0.009429965168237686,0.03424448519945145,0.05623036623001099,2,0.06159904617789805,0.002038784400369018,0.05367055099094392,0.9966548007999121,-0.002548180986195803,-0.1230048164725304,-0.9924027919769287,5.60140323638916,10.81021118164062,-38.51333618164062,-1,2,1048276.668793167,2,0,1617674074.257963,1617673410.617,100,1.502572,0,0,64.93813,0,0,1617674072.032722,1048273.626553,0,-0.3937073,98.16005,0,0,0,0,0,1,1617674073.754547,1,0.1,1617674074.416028,-5.220092,-12.55689,0
1617674074.452813,21,0,0,0,0,0,0,0,0,0,1617674074.443486,5.641470909118652,10.70103073120117,-38.50811004638672,323.8761596679688,330.9045104980469,17.2717227935791,1048276.841256167,-0.000579833984375,-0.1280670166015625,-1.004119873046875,1048276.820087167,0.06557128578424454,0.04815554618835449,-0.05056224390864372,1048276.836824167,17.16421508789062,45.17085266113281,-108.8924560546875,1048276.778993167,0.1077559695972984,-0.002567682570437599,0.1233171275992818,-0.05109243839979172,0.1264467984437943,-0.09048245847225189,-0.009429965168237686,0.03424448519945145,0.05623036623001099,2,0.06159904617789805,0.002038784400369018,0.05367055099094392,0.9966548007999121,-0.002548180986195803,-0.1230048164725304,-0.9924027919769287,5.60140323638916,10.81021118164062,-38.51333618164062,-1,2,1048276.668793167,2,0,1617674074.257963,1617673410.617,100,1.502572,0,0,64.93813,0,0,1617674072.032722,1048273.626553,0,-0.3937073,98.16005,0,0,0,0,0,1,1617674073.754547,1,0.1,1617674074.449291,-5.220092,-13.57498,0
1617674074.490779,22,0,0,0,0,0,0,0,0,0,1617674074.483118,5.611575126647949,10.59125518798828,-38.51949310302734,323.9738159179688,331.0021667480469,17.27167320251465,1048276.874878167,-0.0130767822265625,-0.1372528076171875,-0.9660491943359375,1048276.853708167,-0.005796103738248348,-0.0835028812289238,-0.04817844927310944,1048276.836824167,17.16421508789062,45.17085266113281,-108.8924560546875,1048276.838766167,0.1040472631166458,0.001257975634173619,0.1228326147145975,0.03699721768498421,-0.04590758681297302,-0.03477589040994644,-0.0005923621356487274,-0.00592447817325592,-0.01350140571594238,2,0.06126200277229228,0.003818602084445528,0.05194066702186484,0.9967621086973933,0.001248497166670859,-0.1225239709019661,-0.9924647808074951,5.702818870544434,10.60140991210938,-38.46865081787109,-1,2,1048276.668793167,2,0,1617674074.257963,1617673410.617,100,1.502572,0,0,64.93813,0,0,1617674072.032722,1048273.626553,0,-0.3937073,98.16005,0,0,0,0,0,1,1617674073.754547,1,0.1,1617674074.449291,-5.220092,-13.57498,0
1617674074.522682,23,0,0,0,0,0,0,0,0,0,1617674074.503029,5.512848854064941,10.73276519775391,-38.50438690185547,324.0195617675781,331.0479125976562,17.27164459228516,1048276.908501625,-0.0038604736328125,-0.14666748046875,-0.9912567138671875,1048276.887332167,-0.064930260181427,0.02093830518424511,-0.03577051311731339,1048276.896799167,16.95510864257812,45.40806579589844,-108.9844207763672,1048276.898539167,0.1015965848658904,-0.0006947163292227118,0.1194637746975099,-0.04628607258200645,0.0430915430188179,-0.01832202449440956,-0.00465080514550209,-0.0259769931435585,0.01161026954650879,2,0.05963697466895918,0.002684878799655423,0.05066518313494484,0.9969298568578272,-0.0006897647981531918,-0.1191798225045204,-0.992872416973114,5.516619682312012,10.7801399230957,-38.53338623046875,-1,2,1048276.668793167,2,0,1617674074.257963,1617673410.617,100,1.502572,0,0,64.93813,0,0,1617674072.032722,1048273.626553,0,-0.3937073,98.16005,0,0,0,0,0,1,1617674073.754547,1,0.1,1617674074.516229,-5.220092,-15.24854,0
1617674074.563214,24,0,0,0,0,0,0,0,0,0,1617674074.542955,5.571534156799316,10.73771667480469,-38.49652099609375,324.010498046875,331.0388488769531,17.27160263061523,1048276.942122625,0.0022125244140625,-0.126434326171875,-1.015045166015625,1048276.920953625,0.04809402674436569,0.08445656299591064,0.01614914275705814,1048276.896799167,16.95510864257812,45.40806579589844,-108.9844207763672,1048276.898539167,0.1015965848658904,-0.0006947163292227118,0.1194637746975099,-0.04628607258200645,0.0430915430188179,-0.01832202449440956,-0.00465080514550209,-0.0259769931435585,0.01161026954650879,2,0.05963697466895918,0.002684878799655423,0.05066518313494484,0.9969298568578272,-0.0006897647981531918,-0.1191798225045204,-0.992872416973114,5.516619682312012,10.7801399230957,-38.53338623046875,-1,2,1048276.668793167,2,0,1617674074.257963,1617673410.617,100,1.502572,0,0,64.93813,0,0,1617674072.032722,1048273.626553,0,-0.3937073,98.16005,0,0,0,0,0,1,1617674073.754547,1,0.1,1617674074.563189,-5.220092,-16.50471,0
1617674074.582549,25,0,0,0,0,0,0,0,0,0,1617674074.562808,5.602597236633301,10.73904800415039,-38.68098449707031,323.9949951171875,331.0233459472656,17.27157783508301,1048276.975744625,0.0023193359375,-0.1285247802734375,-1.008834838867188,1048276.954575625,0.07063262164592743,0.00914343073964119,0.0001432780700270087,1048276.956780625,17.06535339355469,45.28121948242188,-109.1491241455078,1048276.958312625,0.1021618445064079,0.001995622920258582,0.1224725305920449,0.047602329403162,-0.006005233619362116,-0.0007192264311015606,0.002047650516033173,0.0009202808141708374,-0.02572661638259888,2,0.06106729869021274,0.004119332003380164,0.05102397065402303,0.9968200808627086,0.001980673521757126,-0.1221665889024734,-0.9925076365470886,5.621029853820801,10.69118499755859,-38.70147705078125,-1,2,1048276.668793167,2,0,1617674074.257963,1617673410.617,100,1.502572,0,0,64.93813,0,0,1617674072.032722,1048273.626553,0,-0.3937073,98.16005,0,0,0,0,0,1,1617674073.754547,1,0.1,1617674074.563189,-5.220092,-16.50471,0
1617674074.623702,26,0,0,0,0,0,0,0,0,0,1617674074.622609,5.651455879211426,10.74381637573242,-38.59910583496094,323.9548034667969,330.983154296875,17.27152442932129,1048277.009367625,0.0074005126953125,-0.1239013671875,-1.031265258789062,1048276.988198625,-0.02358735166490078,-0.0432039275765419,0.01778325811028481,1048276.956780625,17.06535339355469,45.28121948242188,-109.1491241455078,1048276.958312625,0.1021618445064079,0.001995622920258582,0.1224725305920449,0.047602329403162,-0.006005233619362116,-0.0007192264311015606,0.002047650516033173,0.0009202808141708374,-0.02572661638259888,2,0.06106729869021274,0.004119332003380164,0.05102397065402303,0.9968200808627086,0.001980673521757126,-0.1221665889024734,-0.9925076365470886,5.621029853820801,10.69118499755859,-38.70147705078125,-1,2,1048276.993647625,1,2,1617674074.582817,1617673410.617,100,1.502572,0,0,64.93813,0,0,1617674074.582957,1048274.575977,0,-0.3619995,98.15968,0,0,0,0,0,1,1617674073.754547,1,0.1,1617674074.623598,-5.220092,-17.68941,0
1617674074.652378,27,0,0,0,0,0,0,0,0,0,1617674074.642979,5.608267784118652,10.79949569702148,-38.43269348144531,323.9490661621094,330.9774169921875,17.27153968811035,1048277.042989625,-0.0128631591796875,-0.1162109375,-0.9907684326171875,1048277.021819625,-0.03353852033615112,-0.1570154428482056,0.003645867574959993,1048277.016751625,17.06137084960938,45.43132019042969,-108.8697814941406,1048277.018084625,0.1028828097677358,-0.002000555151013173,0.1223906685847798,-0.04189538210630417,-0.1517359018325806,0.006005499046295881,0.005891844630241394,0.002151302993297577,-0.03114873170852661,2,0.06112755663497587,0.002147536805715909,0.05126135628876899,0.9968103974638998,-0.001985588809475303,-0.122085340321064,-0.9925175905227661,5.632086753845215,10.79992294311523,-38.47833251953125,-1,2,1048276.993647625,1,2,1617674074.582817,1617673410.617,100,1.502572,0,0,64.93813,0,0,1617674074.582957,1048274.575977,0,-0.3619995,98.15968,0,0,0,0,0,1,1617674073.754547,1,0.1,1617674074.648813,-5.220092,-18.56944,0
1617674074.691766,28,0,0,0,0,0,0,0,0,0,1617674074.682373,5.388110160827637,10.88098526000977,-38.54042816162109,324.001953125,331.0303039550781,17.27161026000977,1048277.076612625,-0.02239990234375,-0.104278564453125,-0.9672088623046875,1048277.055441625,0.02330106124281883,-0.1313502937555313,-0.02600470185279846,1048277.076719625,16.72477722167969,45.43403625488281,-109.0536804199219,1048277.018084625,0.1028828097677358,-0.002000555151013173,0.1223906685847798,-0.04189538210630417,-0.1517359018325806,0.006005499046295881,0.005891844630241394,0.002151302993297577,-0.03114873170852661,2,0.06112755663497587,0.002147536805715909,0.05126135628876899,0.9968103974638998,-0.001985588809475303,-0.122085340321064,-0.9925175905227661,5.632086753845215,10.79992294311523,-38.47833251953125,-1,2,1048276.993647625,1,2,1617674074.582817,1617673410.617,100,1.502572,0,0,64.93813,0,0,1617674074.582957,1048274.575977,0,-0.3619995,98.15968,0,0,0,0,0,1,1617674073.754547,1,0.1,1617674074.686647,-5.220092,-20.08645,0
1617674074.730591,29,0,0,0,0,0,0,0,0,0,1617674074.72221,5.254948616027832,10.70182800292969,-38.43105316162109,324.1797485351562,331.2080993652344,17.27161026000977,1048277.110234625,-0.024688720703125,-0.1191864013671875,-0.9760284423828125,1048277.089064625,0.1581419706344604,0.1156392470002174,-0.07355810701847076,1048277.076719625,16.72477722167969,45.43403625488281,-109.0536804199219,1048277.077857625,0.1016993643719789,-0.008781490373047511,0.1226236875377737,0.1012906655669212,0.01120887324213982,-0.06381236016750336,-0.0136844590306282,0.0180380791425705,0.02524399757385254,2,0.06141639913850157,-0.001262454092699736,0.05046309015525574,0.9968349520589173,-0.008715439587831497,-0.1223166137933731,-0.99245285987854,5.316340446472168,10.84090423583984,-38.59319305419922,-1,2,1048276.993647625,1,2,1617674074.582817,1617673410.617,100,1.502572,0,0,64.93813,0,0,1617674074.582957,1048274.575977,0,-0.3619995,98.15968,0,0,0,0,0,1,1617674073.754547,1,0.1,1617674074.716019,-5.220092,-20.93767,0
1617674074.751651,30,0,0,0,0,0,0,0,0,0,1617674074.742235,5.299338340759277,10.59285736083984,-38.73975372314453,324.3165283203125,331.3448791503906,17.27160263061523,1048277.143855625,-0.004058837890625,-0.131591796875,-1.014923095703125,1048277.122686625,0.16684490442276,0.2412435114383698,-0.1222231164574623,1048277.136696625,16.7822265625,45.00216674804688,-109.2133483886719,1048277.077857625,0.1016993643719789,-0.008781490373047511,0.1226236875377737,0.1012906655669212,0.01120887324213982,-0.06381236016750336,-0.0136844590306282,0.0180380791425705,0.02524399757385254,2,0.06141639913850157,-0.001262454092699736,0.05046309015525574,0.9968349520589173,-0.008715439587831497,-0.1223166137933731,-0.99245285987854,5.316340446472168,10.84090423583984,-38.59319305419922,-1,2,1048276.993647625,1,2,1617674074.582817,1617673410.617,100,1.502572,0,0,64.93813,0,0,1617674074.582957,1048274.575977,0,-0.3619995,98.15968,0,0,0,0,0,1,1617674073.754547,1,0.1,1617674074.749208,-5.220092,-22.27546,0
1617674074.800916,31,0,0,0,0,0,0,0,0,0,1617674074.78194,5.59499454498291,10.33748626708984,-38.68316650390625,324.6404113769531,331.6687622070312,17.27157974243164,1048277.177478625,0.00408935546875,-0.150634765625,-1.009445190429688,1048277.156309625,0.03271160647273064,0.1675551682710648,-0.1503532826900482,1048277.136696625,16.7822265625,45.00216674804688,-109.2133483886719,1048277.137630625,0.09585626371873132,0.002505260310527162,0.131011244041677,0.1005432531237602,0.1890739947557449,-0.1419563144445419,-0.0109218955039978,0.003531113266944885,-0.01432538032531738,2,0.06532368306498984,0.004384622172349438,0.04788889712910094,0.9967046534487614,0.002483788412064314,-0.1306367814540863,-0.9914271831512451,5.332173347473145,10.44994354248047,-38.76414489746094,-1,2,1048276.993647625,1,2,1617674074.582817,1617673410.617,100,1.502572,0,0,64.93813,0,0,1617674074.582957,1048274.575977,0,-0.3619995,98.15968,1617674074.75529,587422867,1685438189,0,0,1,1617674073.754547,1,0.1,1617674074.800885,-5.220092,-23.65456,0
1617674074.821515,32,0,0,0,0,0,0,0,0,0,1617674074.801969,5.621424674987793,10.42124938964844,-38.80457305908203,324.7684326171875,331.7967834472656,17.27156639099121,1048277.211100625,0.0291290283203125,-0.1329803466796875,-1.053207397460938,1048277.189931625,-0.01808046735823154,0.2304656952619553,-0.1079118177294731,1048277.196666625,17.1937255859375,44.98922729492188,-109.2038269042969,1048277.197403625,0.08816372578936835,0.01259588170387788,0.1303567671580372,-0.006838389672338963,0.2325268387794495,-0.1022302284836769,0.001763029955327511,-0.0159928947687149,-0.03558635711669922,2,0.06479074217815525,0.00914858643472936,0.04438294512463453,0.996869339035616,0.01248868275433779,-0.129987895488739,-0.9914368987083435,5.71822452545166,10.391845703125,-38.77577972412109,-1,2,1048276.993647625,1,2,1617674074.582817,1617673410.617,100,1.502572,0,0,64.93813,0,0,1617674074.582957,1048274.575977,0,-0.3619995,98.15968,1617674074.75529,587422867,1685438189,0,0,1,1617674073.754547,1,0.1,1617674074.816164,-5.220092,-24.21499,0
1617674074.859721,33,0,0,0,0,0,0,0,0,0,1617674074.841868,5.925858497619629,10.45682525634766,-38.53985595703125,325.0365295410156,332.0648803710938,17.27155113220215,1048277.244721625,0.0434112548828125,-0.1297760009765625,-1.033233642578125,1048277.223552625,0.1611955463886261,0.1309990286827087,-0.136994868516922,1048277.196666625,17.1937255859375,44.98922729492188,-109.2038269042969,1048277.197403625,0.08816372578936835,0.01259588170387788,0.1303567671580372,-0.006838389672338963,0.2325268387794495,-0.1022302284836769,0.001763029955327511,-0.0159928947687149,-0.03558635711669922,2,0.06479074217815525,0.00914858643472936,0.04438294512463453,0.996869339035616,0.01248868275433779,-0.129987895488739,-0.9914368987083435,5.71822452545166,10.391845703125,-38.77577972412109,-1,2,1048276.993647625,1,2,1617674074.582817,1617673410.617,100,1.502572,0,0,64.93813,0,0,1617674074.582957,1048274.575977,0,-0.3619995,98.15968,1617674074.75529,587422867,1685438189,0,0,1,1617674073.754547,1,0.1,1617674074.85969,-5.220092,-25.40992,0
1617674074.891504,34,0,0,0,0,0,0,0,0,0,1617674074.881432,6.00376033782959,10.1191291809082,-38.54345703125,325.4278259277344,332.4561767578125,17.27186393737793,1048277.278345625,0.0338134765625,-0.195220947265625,-0.962371826171875,1048277.257175625,0.2969605624675751,-0.01994121819734573,-0.1741172075271606,1048277.256633625,17.41635131835938,44.87901306152344,-109.1656188964844,1048277.257175625,0.07945666651501748,0.01855436748078226,0.1401791260494459,0.2856554687023163,-0.02523474767804146,-0.1722104102373123,0.02137783356010914,-0.01263846457004547,-0.01469439268112183,2,0.06960635793597601,0.01202838112689415,0.04026783898876479,0.9966889244706998,0.01837131381034851,-0.1397204846143723,-0.9900205731391907,5.981398582458496,10.29040908813477,-38.69429779052734,-1,2,1048276.993647625,1,2,1617674074.582817,1617673410.617,100,1.502572,0,0,64.93813,0,0,1617674074.582957,1048274.575977,0,-0.3619995,98.15968,1617674074.75529,587422867,1685438189,0,0,1,1617674073.754547,1,0.1,1617674074.882909,-5.220092,-26.21166,0
1617674074.921636,35,0,0,0,0,0,0,0,0,0,1617674074.901458,6.009360313415527,10.01385498046875,-38.65446472167969,325.4975891113281,332.5259399414062,17.27202796936035,1048277.311966625,0.018798828125,-0.17645263671875,-0.9579315185546875,1048277.290797625,0.1200981810688972,0.0008586031035520136,-0.006022472400218248,1048277.256633625,17.41635131835938,44.87901306152344,-109.1656188964844,1048277.257175625,0.07945666651501748,0.01855436748078226,0.1401791260494459,0.2856554687023163,-0.02523474767804146,-0.1722104102373123,0.02137783356010914,-0.01263846457004547,-0.01469439268112183,2,0.06960635793597601,0.01202838112689415,0.04026783898876479,0.9966889244706998,0.01837131381034851,-0.1397204846143723,-0.9900205731391907,5.981398582458496,10.29040908813477,-38.69429779052734,-1,2,1048276.993647625,1,2,1617674074.582817,1617673410.617,100,1.502572,0,0,64.93813,0,0,1617674074.582957,1048274.575977,0,-0.3619995,98.15968,1617674074.75529,587422867,1685438189,0,0,1,1617674073.754547,1,0.1,1617674074.921616,-5.220092,-26.56351,0
1617674074.960964,36,0,0,0,0,0,0,0,0,0,1617674074.941846,5.96816349029541,9.923076629638672,-38.84157562255859,325.3888244628906,332.4171752929688,17.27209854125977,1048277.345590625,0.003509521484375,-0.1109466552734375,-0.9618377685546875,1048277.324418625,-0.04002411663532257,-0.03222637996077538,0.05621267110109329,1048277.316601625,17.34461975097656,44.5430908203125,-109.3694915771484,1048277.316948625,0.07699155348997519,0.01840830894824664,0.1471128580412595,-0.02986158058047295,-0.03136179596185684,0.06671850383281708,-0.0009965263307094574,-0.02089764177799225,0.03033632040023804,2,0.07307929379356626,0.01200057761691173,0.03905648116667576,0.9964887652714831,0.01820844225585461,-0.1465827971696854,-0.9890307784080505,5.907761573791504,9.960556030273438,-38.8795166015625,-1,2,1048276.993647625,1,2,1617674074.582817,1617673410.617,100,1.502572,0,0,64.93813,0,0,1617674074.582957,1048274.575977,0,-0.3619995,98.15968,1617674074.75529,587422867,1685438189,0,0,1,1617674073.754547,1,0.1,1617674074.949389,-5.220092,-26.61184,0
1617674074.991567,37,0,0,0,0,0,0,0,0,0,1617674074.981105,6.035340309143066,9.857662200927734,-38.77479553222656,325.4847717285156,332.5131225585938,17.27206230163574,1048277.379211625,0.0090484619140625,-0.1185455322265625,-0.956787109375,1048277.358042625,-0.03068254515528679,-0.02178199402987957,-0.07133836299180984,1048277.376570625,17.39189147949219,44.59794616699219,-109.2782897949219,1048277.316948625,0.07699155348997519,0.01840830894824664,0.1471128580412595,-0.02986158058047295,-0.03136179596185684,0.06671850383281708,-0.0009965263307094574,-0.02089764177799225,0.03033632040023804,2,0.07307929379356626,0.01200057761691173,0.03905648116667576,0.9964887652714831,0.01820844225585461,-0.1465827971696854,-0.9890307784080505,5.907761573791504,9.960556030273438,-38.8795166015625,-1,2,1048276.993647625,1,2,1617674074.582817,1617673410.617,100,1.502572,0,0,64.93813,0,0,1617674074.582957,1048274.575977,0,-0.3619995,98.15968,1617674074.75529,587422867,1685438189,0,0,1,1617674073.754547,1,0.1,1617674074.981626,-6.33465,-27.64215,0
1617674075.030389,38,0,0,0,0,0,0,0,0,0,1617674075.021037,5.91591739654541,9.966945648193359,-38.68415069580078,325.7486267089844,332.7769775390625,17.27213859558105,1048277.412832625,0.0240936279296875,-0.1696014404296875,-0.96905517578125,1048277.391663625,0.1045972481369972,0.1294053941965103,-0.1238604262471199,1048277.376570625,17.39189147949219,44.59794616699219,-109.2782897949219,1048277.376721625,0.07553293536682561,0.01834037144578453,0.1464719514873859,0.03046515211462975,0.04982101172208786,-0.1202163323760033,-0.01001003012061119,0.03436128795146942,0.03050762414932251,2,0.07276996328995092,0.01190157359486576,0.03832519407996732,0.9965410902383315,0.01814296841621399,-0.1459487825632095,-0.9891257882118225,5.977795600891113,9.951526641845703,-38.82057952880859,-1,2,1048276.993647625,1,2,1617674074.582817,1617673410.617,100,1.502572,0,0,64.93813,0,0,1617674074.582957,1048274.575977,0,-0.3619995,98.15968,1617674074.75529,587422867,1685438189,0,0,1,1617674073.754547,1,0.1,1617674075.01604,-6.891928,-27.83779,0
1617674075.060637,39,0,0,0,0,0,0,0,0,0,1617674075.040907,6.01579761505127,9.952564239501953,-38.88665008544922,325.8158569335938,332.8442077636719,17.2722225189209,1048277.446456625,0.0472564697265625,-0.1737213134765625,-1.013824462890625,1048277.425287625,0.117258183658123,0.1978158801794052,-0.04970576986670494,1048277.436542625,17.48355102539062,44.46902465820312,-109.3358154296875,1048277.436494625,0.07021345318248129,0.02752657938375512,0.1519152702604291,0.06227856874465942,0.1563651412725449,-0.02875044569373131,0.01150542497634888,-0.02858473360538483,-0.009038031101226807,2,0.07534899956725,0.01637797698632517,0.03603874139383323,0.9963711434450315,0.02720612101256847,-0.1513316184282303,-0.9881085753440857,6.037806510925293,9.886306762695312,-38.89356231689453,-1,2,1048276.993647625,1,2,1617674074.582817,1617673410.617,100,1.502572,0,0,64.93813,0,0,1617674074.582957,1048274.575977,0,-0.3619995,98.15968,1617674074.75529,587422867,1685438189,0,0,1,1617674073.754547,1,0.1,1617674075.049228,-8.006486,-28.22974,0
1617674075.102031,40,0,0,0,0,0,0,0,0,0,1617674075.100721,6.26462459564209,9.792282104492188,-38.77438354492188,325.8694458007812,332.8977966308594,17.27228927612305,1048277.480077625,0.0516510009765625,-0.1565704345703125,-1.019287109375,1048277.458908625,-0.02154710330069065,-0.004318315535783768,-0.01857847720384598,1048277.436542625,17.48355102539062,44.46902465820312,-109.3358154296875,1048277.436494625,0.07021345318248129,0.02752657938375512,0.1519152702604291,0.06227856874465942,0.1563651412725449,-0.02875044569373131,0.01150542497634888,-0.02858473360538483,-0.009038031101226807,2,0.07534899956725,0.01637797698632517,0.03603874139383323,0.9963711434450315,0.02720612101256847,-0.1513316184282303,-0.9881085753440857,6.037806510925293,9.886306762695312,-38.89356231689453,-1,2,1048276.993647625,1,2,1617674074.582817,1617673410.617,100,1.502572,0,0,64.93813,0,0,1617674074.582957,1048274.575977,0,-0.3619995,98.15968,1617674074.75529,587422867,1685438189,0,0,1,1617674073.754547,1,0.1,1617674075.101987,-9.121044,-28.83122,0
1617674075.120299,41,0,0,0,0,0,0,0,0,0,1617674075.100721,6.26462459564209,9.792282104492188,-38.77438354492188,325.8694458007812,332.8977966308594,17.27228927612305,1048277.513698625,0.0382843017578125,-0.1605224609375,-0.9763641357421875,1048277.492529625,-0.06227908656001091,-0.1428964287042618,-0.01441009808331728,1048277.496514625,17.60284423828125,44.54995727539062,-109.4025268554688,1048277.496266625,0.06936813255208309,0.0247224192028006,0.1490627729152108,-0.06811840087175369,-0.1422094851732254,-0.01348070707172155,0.01924013905227184,-0.01080559194087982,-0.01172715425491333,2,0.07398448150156003,0.01490110854245771,0.03549806831898916,0.9965160247848921,0.02444577403366566,-0.1485113650560379,-0.9886084794998169,6.193964958190918,9.898586273193359,-38.90933990478516,-1,2,1048276.993647625,1,2,1617674074.582817,1617673410.617,100,1.502572,0,0,64.93813,0,0,1617674074.582957,1048274.575977,0,-0.3619995,98.15968,1617674074.75529,587422867,1685438189,0,0,1,1617674073.754547,1,0.1,1617674075.116175,-9.678323,-28.41211,0
1617674075.16125,42,0,0,0,0,0,0,0,0,0,1617674075.16054,6.061448097229004,9.842761993408203,-38.70421600341797,325.8830261230469,332.911376953125,17.27226257324219,1048277.547322625,0.0296630859375,-0.1622314453125,-0.96533203125,1048277.526153625,0.009030512534081936,-0.04359754547476768,0.0006711165769957006,1048277.496514625,17.60284423828125,44.54995727539062,-109.4025268554688,1048277.496266625,0.06936813255208309,0.0247224192028006,0.1490627729152108,-0.06811840087175369,-0.1422094851732254,-0.01348070707172155,0.01924013905227184,-0.01080559194087982,-0.01172715425491333,2,0.07398448150156003,0.01490110854245771,0.03549806831898916,0.9965160247848921,0.02444577403366566,-0.1485113650560379,-0.9886084794998169,6.193964958190918,9.898586273193359,-38.90933990478516,-1,2,1048276.993647625,1,2,1617674074.582817,1617673410.617,100,1.502572,0,0,64.93813,0,0,1617674074.582957,1048274.575977,0,-0.3619995,98.15968,1617674074.75529,587422867,1685438189,0,0,1,1617674073.754547,1,0.1,1617674075.161208,-10.79288,-29.27324,0
1617674075.190203,43,0,0,0,0,0,0,0,0,0,1617674075.180796,6.043395042419434,9.839138031005859,-38.71159362792969,325.8873901367188,332.9157409667969,17.27226066589355,1048277.580943625,0.0354461669921875,-0.154998779296875,-0.978851318359375,1048277.559774625,0.03455504775047302,0.05173083767294884,-0.00108284130692482,1048277.556485625,17.45677185058594,44.51031494140625,-109.1924896240234,1048277.556039625,0.06916139002820408,0.0232822541048976,0.1496049515036061,0.02223650552332401,0.0465678907930851,0.005085501354187727,0.007192295044660568,-0.01353484392166138,0.01938480138778687,2,0.0742816574925311,0.01418499246311995,0.03534422059102571,0.9965097595239207,0.02302011288702488,-0.1490475088357925,-0.9885620474815369,6.03164005279541,9.884593963623047,-38.73910522460938,-1,2,1048276.993647625,1,2,1617674074.582817,1617673410.617,100,1.502572,0,0,64.93813,0,0,1617674074.582957,1048274.575977,0,-0.3619995,98.15968,1617674074.75529,587422867,1685438189,0,0,1,1617674073.754547,1,0.1,1617674075.182714,-10.79288,-29.27324,0
1617674075.230034,44,0,0,0,0,0,0,0,0,0,1617674075.220169,6.056571006774902,9.874885559082031,-38.94695281982422,325.918212890625,332.9465637207031,17.27226257324219,1048277.614567625,0.0397186279296875,-0.1605987548828125,-0.9842071533203125,1048277.593395625,0.001301486860029399,0.04814009740948677,-0.01197996363043785,1048277.616454625,17.50473022460938,44.37471008300781,-109.3135833740234,1048277.556039625,0.06916139002820408,0.0232822541048976,0.1496049515036061,0.02223650552332401,0.0465678907930851,0.005085501354187727,0.007192295044660568,-0.01353484392166138,0.01938480138778687,2,0.0742816574925311,0.01418499246311995,0.03534422059102571,0.9965097595239207,0.02302011288702488,-0.1490475088357925,-0.9885620474815369,6.03164005279541,9.884593963623047,-38.73910522460938,-1,2,1048276.993647625,1,2,1617674074.582817,1617673410.617,100,1.502572,0,0,64.93813,0,0,1617674074.582957,1048274.575977,0,-0.3619995,98.15968,1617674074.75529,587422867,1685438189,0,0,1,1617674073.754547,1,0.1,1617674075.220368,-11.90744,-30.3301,0
1617674075.260176,45,0,0,0,0,0,0,0,0,0,1617674075.240531,6.097443580627441,9.771282196044922,-38.81320953369141,325.9241333007812,332.9524841308594,17.27226638793945,1048277.648188625,0.0405426025390625,-0.1683197021484375,-0.9989013671875,1048277.627019625,-0.02320598624646664,0.06076774373650551,0.00256462418474257,1048277.616454625,17.50473022460938,44.37471008300781,-109.3135833740234,1048277.615812625,0.0685074291453973,0.02681842807321664,0.1502194366323313,-0.02204834669828415,0.04667557403445244,-0.01183913089334965,0.01320539973676205,-0.01094360649585724,0.00417560338973999,2,0.07453044295817755,0.0159327996923717,0.03515298702649755,0.9964715394958013,0.02651322819292545,-0.1496551036834717,-0.9883826971054077,6.064560890197754,9.796726226806641,-38.89482116699219,-1,2,1048276.993647625,1,2,1617674074.582817,1617673410.617,100,1.502572,0,0,64.93813,0,0,1617674074.582957,1048274.575977,0,-0.3619995,98.15968,1617674074.75529,587422867,1685438189,0,0,1,1617674073.754547,1,0.1,1617674075.249495,-12.46472,-30.36189,0
1617674075.290053,46,0,0,0,0,0,0,0,0,0,1617674075.279984,6.097809791564941,9.836154937744141,-38.73126220703125,325.8576965332031,332.8860473632812,17.27227973937988,1048277.681810625,0.0380401611328125,-0.153106689453125,-1.004638671875,1048277.660640625,-0.04131841287016869,0.03834765404462814,0.03621606156229973,1048277.676422625,17.60444641113281,44.48626708984375,-109.1911163330078,1048277.615812625,0.0685074291453973,0.02681842807321664,0.1502194366323313,-0.02204834669828415,0.04667557403445244,-0.01183913089334965,0.01320539973676205,-0.01094360649585724,0.00417560338973999,2,0.07453044295817755,0.0159327996923717,0.03515298702649755,0.9964715394958013,0.02651322819292545,-0.1496551036834717,-0.9883826971054077,6.064560890197754,9.796726226806641,-38.89482116699219,-1,2,1048276.993647625,1,2,1617674074.582817,1617673410.617,100,1.502572,0,0,64.93813,0,0,1617674074.582957,1048274.575977,0,-0.3619995,98.15968,1617674074.75529,587422867,1685438189,0,0,1,1617674073.754547,1,0.1,1617674075.281999,-8.498389,-10.27534,0
1617674075.33051,47,0,0,0,0,0,0,0,0,0,1617674075.319973,6.126301765441895,9.884860992431641,-38.59891510009766,325.7787170410156,332.8070678710938,17.27229881286621,1048277.715433625,0.0321807861328125,-0.150146484375,-0.994476318359375,1048277.694264625,-0.0302622988820076,0.01572037301957607,0.03188096731901169,1048277.676422625,17.60444641113281,44.48626708984375,-109.1911163330078,1048277.675585625,0.06981458097615817,0.02957657632750136,0.1483900651324659,-0.05056370794773102,0.02604448981583118,0.03874453529715538,0.009037025272846222,-0.007274731993675232,-0.01291751861572266,2,0.07355903987099258,0.01732484354862266,0.03589587992589799,0.9964941203208457,0.02924727648496628,-0.1478460878133774,-0.9885778427124023,6.14763355255127,9.865509033203125,-38.74582672119141,-1,2,1048276.993647625,1,2,1617674074.582817,1617673410.617,100,1.502572,0,0,64.93813,0,0,1617674074.582957,1048274.575977,0,-0.3619995,98.15968,1617674074.75529,587422867,1685438189,0,0,1,1617674073.754547,1,0.1,1617674075.316056,-7.838018,-8.663501,0
1617674075.359861,48,0,0,0,0,0,0,0,0,0,1617674075.339749,6.132536888122559,9.989215850830078,-38.70797729492188,325.7470397949219,332.775390625,17.27231025695801,1048277.749054625,0.0343475341796875,-0.1526336669921875,-1.00665283203125,1048277.727885625,-0.00714792450889945,0.03756015747785568,0.0228832121938467,1048277.736398625,17.64811706542969,44.52352905273438,-109.1211395263672,1048277.735357625,0.07165847561836694,0.0313855094785649,0.1474103165708338,-0.01162423286587,0.01901124231517315,0.01965012401342392,0.001415416598320007,-0.004978403449058533,-0.01941955089569092,2,0.0730215319595212,0.01827698316748198,0.03687471983381319,0.9964808254982547,0.03104002960026264,-0.1468770354986191,-0.9886676073074341,6.188759803771973,9.93572998046875,-38.68913269042969,-1,2,1048276.993647625,1,2,1617674074.582817,1617673410.617,100,1.502572,0,0,64.93813,0,0,1617674074.582957,1048274.575977,0,-0.3619995,98.15968,1617674074.75529,587422867,1685438189,0,0,1,1617674073.754547,1,0.1,1617674075.34952,-7.170584,-8.876154,0
1617674075.390724,49,0,0,0,0,0,0,0,0,0,1617674075.379744,6.20297908782959,10.12717056274414,-38.71242523193359,325.7109680175781,332.7393188476562,17.27234840393066,1048277.782676625,0.033843994140625,-0.155975341796875,-1.006271362304688,1048277.761506625,0.01852068677544594,0.01684555970132351,0.01361008454114199,1048277.736398625,17.64811706542969,44.52352905273438,-109.1211395263672,1048277.735357625,0.07165847561836694,0.0313855094785649,0.1474103165708338,-0.01162423286587,0.01901124231517315,0.01965012401342392,0.001415416598320007,-0.004978403449058533,-0.01941955089569092,2,0.0730215319595212,0.01827698316748198,0.03687471983381319,0.9964808254982547,0.03104002960026264,-0.1468770354986191,-0.9886676073074341,6.188759803771973,9.93572998046875,-38.68913269042969,-1,2,1048276.993647625,1,2,1617674074.582817,1617673410.617,100,1.502572,0,0,64.93813,0,0,1617674074.582957,1048274.575977,0,-0.3619995,98.15968,1617674074.75529,587422867,1685438189,0,0,1,1617674073.754547,1,0.1,1617674075.34952,-7.170584,-8.876154,0
1617674075.429274,50,0,0,0,0,0,0,0,0,0,1617674075.419498,6.286787986755371,10.07893753051758,-38.61940765380859,325.6524963378906,332.6808471679688,17.27243804931641,1048277.816299625,0.0310516357421875,-0.1533660888671875,-1.00372314453125,1048277.795130625,-0.008784969337284565,-0.001622397685423493,0.02394581213593483,1048277.796366625,17.68222045898438,44.75283813476562,-109.3012542724609,1048277.795130625,0.07272576372342048,0.03176458356359695,0.1474763646101767,-0.02009560540318489,-0.006917350925505161,0.02585465088486671,0.0004305988550186157,-0.009368643164634705,-0.01532119512557983,2,0.0730375883452745,0.01850597311960295,0.03742075357916724,0.9964550442438408,0.03141449764370918,-0.1469423621892929,-0.9886460900306702,6.23656177520752,10.12529754638672,-38.86470031738281,-1,2,1048276.993647625,1,2,1617674074.582817,1617673410.617,100,1.502572,0,0,64.93813,0,0,1617674074.582957,1048274.575977,0,-0.3619995,98.15968,1617674074.75529,587422867,1685438189,0,0,1,1617674073.754547,1,0.1,1617674075.415925,-7.170584,-10.13087,0
1617674075.459224,51,0,0,0,0,0,0,0,0,0,1617674075.439762,6.314858436584473,9.937129974365234,-38.03972625732422,325.5995788574219,332.6279296875,17.27248954772949,1048277.849921625,0.02777099609375,-0.1485137939453125,-1.004241943359375,1048277.828751625,0.04311338067054749,0.02337989024817944,0.05386749282479286,1048277.796366625,17.68222045898438,44.75283813476562,-109.3012542724609,1048277.795130625,0.07272576372342048,0.03176458356359695,0.1474763646101767,-0.02009560540318489,-0.006917350925505161,0.02585465088486671,0.0004305988550186157,-0.009368643164634705,-0.01532119512557983,2,0.0730375883452745,0.01850597311960295,0.03742075357916724,0.9964550442438408,0.03141449764370918,-0.1469423621892929,-0.9886460900306702,6.23656177520752,10.12529754638672,-38.86470031738281,-1,2,1048276.993647625,1,2,1617674074.582817,1617673410.617,100,1.502572,0,0,64.93813,0,0,1617674074.582957,1048274.575977,0,-0.3619995,98.15968,1617674074.75529,587422867,1685438189,0,0,1,1617674073.754547,1,0.1,1617674075.451076,-7.170584,-10.50351,0
1617674075.499048,52,0,0,0,0,0,0,0,0,0,1617674075.479507,6.345280647277832,9.980472564697266,-38.59174346923828,325.4601745605469,332.488525390625,17.27259826660156,1048277.883544625,0.0331878662109375,-0.1341705322265625,-1.027496337890625,1048277.862373625,0.0945611298084259,0.06835216283798218,0.06238428130745888,1048277.856332625,17.74044799804688,44.59037780761719,-109.1483459472656,1048277.854903625,0.07566595356938735,0.03269443342775559,0.1492661933816849,0.07624168694019318,0.06744755059480667,0.06473428755998611,-0.004935599863529205,0.001816198229789734,-0.01976567506790161,2,0.07388394777076901,0.01910924024285977,0.03893160274072627,0.9963234456606527,0.03232512623071671,-0.1487125307321548,-0.9883520007133484,6.299519538879395,10.00083541870117,-38.68975067138672,-1,2,1048276.993647625,1,2,1617674074.582817,1617673410.617,100,1.502572,0,0,64.93813,0,0,1617674074.582957,1048274.575977,0,-0.3619995,98.15968,1617674074.75529,587422867,1685438189,0,0,1,1617674073.754547,1,0.1,1617674075.482749,-7.170584,-10.80774,0
1617674075.528892,53,0,0,0,0,0,0,0,0,0,1617674075.519174,6.435605049133301,10.00111389160156,-38.85525512695312,325.4224548339844,332.4508056640625,17.27274703979492,1048277.91716475,0.0290069580078125,-0.1405029296875,-1.006866455078125,1048277.895996625,0.1020616516470909,0.002020007697865367,0.006742058787494898,1048277.91629375,17.93362426757812,44.43153381347656,-109.2452697753906,1048277.854903625,0.07566595356938735,0.03269443342775559,0.1492661933816849,0.07624168694019318,0.06744755059480667,0.06473428755998611,-0.004935599863529205,0.001816198229789734,-0.01976567506790161,2,0.07388394777076901,0.01910924024285977,0.03893160274072627,0.9963234456606527,0.03232512623071671,-0.1487125307321548,-0.9883520007133484,6.299519538879395,10.00083541870117,-38.68975067138672,-1,2,1048276.993647625,1,2,1617674074.582817,1617673410.617,100,1.502572,0,0,64.93813,0,0,1617674074.582957,1048274.575977,0,-0.3619995,98.15968,1617674074.75529,587422867,1685438189,0,0,1,1617674073.754547,1,0.1,1617674075.520865,-7.170584,-11.48576,0
1617674075.558975,54,0,0,0,0,0,0,0,0,0,1617674075.539344,6.460755348205566,9.745529174804688,-38.73415374755859,325.4591369628906,332.4874877929688,17.27282905578613,1048277.95078675,0.0323333740234375,-0.170806884765625,-0.9905853271484375,1048277.92961675,0.07825272530317307,-0.05851044878363609,-0.03316887095570564,1048277.91629375,17.93362426757812,44.43153381347656,-109.2452697753906,1048277.91467475,0.07709327232774042,0.03349063715091599,0.154612355064291,0.08167000114917755,-0.03453681617975235,-0.02750013768672943,-0.004337392747402191,0.01657646894454956,-0.02262985706329346,2,0.07651765547401469,0.01965789686375403,0.03970881535653165,0.9960832274403288,0.03308495134115219,-0.1539970934391022,-0.987517237663269,6.479264259338379,9.873302459716797,-38.81985473632812,-1,2,1048276.993647625,1,2,1617674074.582817,1617673410.617,100,1.502572,0,0,64.93813,0,0,1617674074.582957,1048274.575977,0,-0.3619995,98.15968,1617674074.75529,587422867,1685438189,0,0,1,1617674073.754547,1,0.1,1617674075.549569,-7.170584,-11.79455,0
1617674075.598833,55,0,0,0,0,0,0,0,0,0,1617674075.57893,6.459925651550293,9.672828674316406,-38.84415435791016,325.517578125,332.5459289550781,17.27297782897949,1048277.98440975,0.02001953125,-0.1808624267578125,-0.9325714111328125,1048277.96324075,0.07963357865810394,-0.071337029337883,-0.01903947070240974,1048277.97626475,17.821044921875,44.45449829101562,-109.3896484375,1048277.97444775,0.07549108128949258,0.02916012013789232,0.1575110303958862,0.05621546134352684,-0.01834888011217117,-0.01067643985152245,-0.006562996655702591,-0.02288797497749329,0.04741209745407104,2,0.07806125833942287,0.01749257727219597,0.03876182768280234,0.9960411332152501,0.02879505977034569,-0.1568605303764343,-0.987200915813446,6.405648231506348,9.796298980712891,-38.91998291015625,-1,2,1048276.993647625,1,2,1617674074.582817,1617673410.617,100,1.502572,0,0,64.93813,0,0,1617674074.582957,1048275.525413,0,-0.3276367,98.15929,1617674074.75529,587422867,1685438189,0,0,1,1617674073.754547,1,0.1,1617674075.58276,-7.170584,-12.2014,0
1617674075.631092,56,0,0,0,0,0,0,0,0,0,1617674075.618701,6.353816032409668,9.684795379638672,-38.87918853759766,325.5043640136719,332.53271484375,17.27302360534668,1048278.01803175,0.0304718017578125,-0.17681884765625,-0.9810638427734375,1048277.99686175,0.02198013290762901,0.06704454869031906,0.01459625363349915,1048277.97626475,17.821044921875,44.45449829101562,-109.3896484375,1048277.97444775,0.07549108128949258,0.02916012013789232,0.1575110303958862,0.05621546134352684,-0.01834888011217117,-0.01067643985152245,-0.006562996655702591,-0.02288797497749329,0.04741209745407104,2,0.07806125833942287,0.01749257727219597,0.03876182768280234,0.9960411332152501,0.02879505977034569,-0.1568605303764343,-0.987200915813446,6.405648231506348,9.796298980712891,-38.91998291015625,-1,2,1048276.993647625,1,2,1617674074.582817,1617673410.617,100,1.502572,0,0,64.93813,0,0,1617674074.582957,1048275.525413,0,-0.3276367,98.15929,1617674074.75529,587422867,1685438189,0,0,1,1617674073.754547,1,0.1,1617674075.616064,-7.170584,-12.1302,0
1617674075.658743,57,0,0,0,0,0,0,0,0,0,1617674075.638874,6.369772911071777,9.741359710693359,-38.95595550537109,325.4752197265625,332.5035705566406,17.27303886413574,1048278.05165275,0.0274658203125,-0.1671600341796875,-0.9908447265625,1048278.03048375,0.04808869957923889,0.04038150981068611,0.02738288789987564,1048278.03622475,17.82223510742188,44.34854125976562,-109.3197784423828,1048278.03422075,0.07644787782076481,0.03160542333923385,0.1589393111340022,0.0302224438637495,0.03087091818451881,0.0318891704082489,0.002291180193424225,-0.01325303316116333,-0.0005089044570922852,2,0.07871617340741845,0.01877400335873522,0.03934281113316024,0.9959435607555159,0.03120186366140842,-0.1582709699869156,-0.9869025945663452,6.380841255187988,9.740001678466797,-38.90181732177734,-1,2,1048276.993647625,1,2,1617674074.582817,1617673410.617,100,1.502572,0,0,64.93813,0,0,1617674074.582957,1048275.525413,0,-0.3276367,98.15929,1617674074.75529,587422867,1685438189,0,0,1,1617674073.754547,1,0.1,1617674075.649086,-7.170584,-12.06363,0
