loggingTime,loggingSample,locationTimestamp_since1970,locationLatitude,locationLongitude,locationAltitude,locationSpeed,locationCourse,locationVerticalAccuracy,locationHorizontalAccuracy,locationFloor,locationHeadingTimestamp_since1970,locationHeadingX,locationHeadingY,locationHeadingZ,locationTrueHeading,locationMagneticHeading,locationHeadingAccuracy,accelerometerTimestamp_sinceReboot,accelerometerAccelerationX,accelerometerAccelerationY,accelerometerAccelerationZ,gyroTimestamp_sinceReboot,gyroRotationX,gyroRotationY,gyroRotationZ,magnetometerTimestamp_sinceReboot,magnetometerX,magnetometerY,magnetometerZ,motionTimestamp_sinceReboot,motionYaw,motionRoll,motionPitch,motionRotationRateX,motionRotationRateY,motionRotationRateZ,motionUserAccelerationX,motionUserAccelerationY,motionUserAccelerationZ,motionAttitudeReferenceFrame,motionQuaternionX,motionQuaternionY,motionQuaternionZ,motionQuaternionW,motionGravityX,motionGravityY,motionGravityZ,motionMagneticFieldX,motionMagneticFieldY,motionMagneticFieldZ,motionHeading,motionMagneticFieldCalibrationAccuracy,activityTimestamp_sinceReboot,activity,activityActivityConfidence,activityActivityStartDate,pedometerStartDate,pedometerNumberofSteps,pedometerAverageActivePace,pedometerCurrentPace,pedometerCurrentCadence,pedometerDistance,pedometerFloorAscended,pedometerFloorDescended,pedometerEndDate,altimeterTimestamp_sinceReboot,altimeterReset,altimeterRelativeAltitude,altimeterPressure,IP_Timestamp_since1970,IP_en0,IP_pdp_ip0,deviceID,deviceOrientationTimeStamp_since1970,deviceOrientation,batteryTimeStamp_since1970,batteryState,batteryLevel,avAudioRecorder_Timestamp_since1970,avAudioRecorderPeakPower,avAudioRecorderAveragePower,label
1617672707.320757,1,0,0,0,0,0,0,0,0,0,1617672707.315822,-15.18033218383789,-0.5357475280761719,-29.41264343261719,41.59102630615234,48.62059783935547,15.85454082489014,1046909.75559825,0.0199737548828125,-0.0590362548828125,-0.9946441650390625,1046909.75808825,0.0971827432513237,0.06710020452737808,0.05394845455884933,1046909.74579025,-3.666854858398438,33.98977661132812,-100.4168548583984,1046909.69582725,-1.59113927611849,0.02037999317041637,0.06198100830967088,0.08687944710254669,0.06312599033117294,-0.1018128395080566,-0.01184020005166531,-0.01073627173900604,-0.01051980257034302,2,-0.02895968544663191,0.01500245297467027,0.71366139014449,-0.6997311533816428,0.02033945173025131,-0.06194132938981056,-0.997872531414032,-15.14894676208496,-0.5266227722167969,-29.28156280517578,-1,2,1046909.397763917,2,0,1617672706.931171,1617670944.349944,97,1.77341,0,0,65.01641,0,0,1617672684.62291,1046906.655538,0,-1.878693,98.16064,0,0,0,0,0,1,1617672707.292254,1,0.14,1617672707.320699,-23.15483,-30.40843,0
1617672707.321225,2,0,0,0,0,0,0,0,0,0,1617672707.315822,-15.18033218383789,-0.5357475280761719,-29.41264343261719,41.59102630615234,48.62059783935547,15.85454082489014,1046909.78921825,0.0154571533203125,-0.0556640625,-0.926116943359375,1046909.75808825,0.0971827432513237,0.06710020452737808,0.05394845455884933,1046909.74579025,-3.666854858398438,33.98977661132812,-100.4168548583984,1046909.75559825,-1.590520778088507,0.02116828556119528,0.05802242383868495,0.0553797073662281,0.02739283442497253,0.06370855867862701,-0.003888547420501709,0.01634864881634712,0.04589933156967163,2,-0.02786097306416877,0.01330458277965101,0.7134905441364152,-0.6999842542570758,0.02113108523190022,-0.05798987299203873,-0.9980934858322144,-15.11584663391113,-0.6217384338378906,-29.28315734863281,-1,2,1046909.397763917,2,0,1617672706.931171,1617670944.349944,97,1.77341,0,0,65.01641,0,0,1617672684.62291,1046906.655538,0,-1.878693,98.16064,0,0,0,0,0,1,1617672707.292254,1,0.14,1617672707.320699,-23.15483,-30.40843,0
1617672707.351155,3,0,0,0,0,0,0,0,0,0,1617672707.335843,-14.95043849945068,-0.6563682556152344,-29.46799468994141,41.67129135131836,48.70086288452148,15.85451221466064,1046909.82283925,0.031707763671875,-0.0609893798828125,-0.9428253173828125,1046909.79170825,0.3671580255031586,0.491525799036026,-0.04242468997836113,1046909.80577025,-3.4764404296875,34.00848388671875,-100.6305847167969,1046909.75559825,-1.590520778088507,0.02116828556119528,0.05802242383868495,0.0553797073662281,0.02739283442497253,0.06370855867862701,-0.003888547420501709,0.01634864881634712,0.04589933156967163,2,-0.02786097306416877,0.01330458277965101,0.7134905441364152,-0.6999842542570758,0.02113108523190022,-0.05798987299203873,-0.9980934858322144,-15.11584663391113,-0.6217384338378906,-29.28315734863281,-1,2,1046909.397763917,2,0,1617672706.931171,1617670944.349944,97,1.77341,0,0,65.01641,0,0,1617672684.62291,1046906.655538,0,-1.878693,98.16064,0,0,0,0,0,1,1617672707.292254,1,0.14,1617672707.328798,-23.15483,-30.40843,0
1617672707.385683,4,0,0,0,0,0,0,0,0,0,1617672707.375863,-14.22717475891113,-1.158100128173828,-29.83293151855469,41.95031356811523,48.97988510131836,15.85458660125732,1046909.85646125,0.088836669921875,-0.1028900146484375,-1.0733642578125,1046909.82533025,0.5388850569725037,0.8223242163658142,-0.08647869527339935,1046909.80577025,-3.4764404296875,34.00848388671875,-100.6305847167969,1046909.81536925,-1.592444546699227,0.04554925306097149,0.07681297723188092,0.4685502946376801,0.7317390441894531,-0.07088443636894226,-0.01254695653915405,0.01536662131547928,0.0494840145111084,2,-0.04311242857504122,0.01152026445830644,0.7133951703155185,-0.699339653381067,0.04539924114942551,-0.07673746347427368,-0.9960172176361084,-14.81742668151855,-0.7411003112792969,-29.436767578125,-1,2,1046909.397763917,2,0,1617672706.931171,1617670944.349944,97,1.77341,0,0,65.01641,0,0,1617672684.62291,1046906.655538,0,-1.878693,98.16064,0,0,0,0,0,1,1617672707.292254,1,0.14,1617672707.362142,-22.35145,-30.97143,0
1617672707.422709,5,0,0,0,0,0,0,0,0,0,1617672707.415488,-13.33119964599609,-2.112087249755859,-30.33086395263672,42.17550277709961,49.20507431030273,15.85466003417969,1046909.89008125,0.108612060546875,-0.1280517578125,-1.047195434570312,1046909.85895125,0.5596787333488464,0.4190824925899506,-0.08785714954137802,1046909.86574325,-2.215011596679688,33.03118896484375,-101.3484344482422,1046909.87513925,-1.599804462028039,0.08069165751771981,0.1081773291327187,0.3120749592781067,0.1490375101566315,-0.06228416413068771,0.02815878391265869,-0.01747603714466095,-0.06460696458816528,2,-0.06652811664756858,0.01068336459224132,0.7141367321427698,-0.6967557717220725,0.08013295382261276,-0.1079664677381516,-0.9909197688102722,-13.51861953735352,-1.850425720214844,-30.26411437988281,-1,2,1046909.397763917,2,0,1617672706.931171,1617670944.349944,97,1.77341,0,0,65.01641,0,0,1617672684.62291,1046906.655538,0,-1.878693,98.16064,0,0,0,0,0,1,1617672707.292254,1,0.14,1617672707.395472,-22.35145,-30.15117,0
1617672707.445107,6,0,0,0,0,0,0,0,0,0,1617672707.435906,-13.18418598175049,-2.385578155517578,-30.38703918457031,42.20771408081055,49.23728561401367,15.85469818115234,1046909.92370225,0.0948333740234375,-0.1180267333984375,-0.999847412109375,1046909.89257125,0.007966846227645874,-0.063715860247612,-0.04374907910823822,1046909.86574325,-2.215011596679688,33.03118896484375,-101.3484344482422,1046909.87513925,-1.599804462028039,0.08069165751771981,0.1081773291327187,0.3120749592781067,0.1490375101566315,-0.06228416413068771,0.02815878391265869,-0.01747603714466095,-0.06460696458816528,2,-0.06652811664756858,0.01068336459224132,0.7141367321427698,-0.6967557717220725,0.08013295382261276,-0.1079664677381516,-0.9909197688102722,-13.51861953735352,-1.850425720214844,-30.26411437988281,-1,2,1046909.397763917,2,0,1617672706.931171,1617670944.349944,97,1.77341,0,0,65.01641,0,0,1617672684.62291,1046906.655538,0,-1.878693,98.16064,0,0,0,0,0,1,1617672707.292254,1,0.14,1617672707.42841,-22.35145,-29.48483,0
1617672707.484771,7,0,0,0,0,0,0,0,0,0,1617672707.475457,-13.34425830841064,-2.198272705078125,-30.28715515136719,42.24470520019531,49.27427673339844,15.85477352142334,1046909.95732425,0.0773468017578125,-0.076690673828125,-1.0218505859375,1046909.92619425,-0.223555326461792,-0.146746039390564,-0.02521108090877533,1046909.92571625,-1.754180908203125,32.23796081542969,-101.3292236328125,1046909.93491025,-1.601564339235341,0.07505022313414192,0.1028277017510894,-0.1827982366085052,-0.1347835510969162,-0.02728606574237347,0.008012197911739349,0.0109107568860054,-0.01854968070983887,2,-0.06264796053314829,0.01078552034375317,0.7151052825506312,-0.6961202160548816,0.0745837390422821,-0.1026465892791748,-0.9919177889823914,-13.27554225921631,-2.320468902587891,-30.24772644042969,-1,2,1046909.397763917,2,0,1617672706.931171,1617670944.349944,97,1.77341,0,0,65.01641,0,0,1617672684.62291,1046906.655538,0,-1.878693,98.16064,0,0,0,0,0,1,1617672707.292254,1,0.14,1617672707.481391,-22.35145,-29.32553,0
1617672707.515207,8,0,0,0,0,0,0,0,0,0,1617672707.496148,-13.47873878479004,-1.968624114990234,-30.20149230957031,42.35375213623047,49.38332366943359,15.85480880737305,1046909.99094425,0.073455810546875,-0.08612060546875,-1.021255493164062,1046909.95981425,0.08789417147636414,-0.0974474623799324,-0.08985372632741928,1046909.98569225,-2.056594848632812,32.53752136230469,-101.2047424316406,1046909.93491025,-1.601564339235341,0.07505022313414192,0.1028277017510894,-0.1827982366085052,-0.1347835510969162,-0.02728606574237347,0.008012197911739349,0.0109107568860054,-0.01854968070983887,2,-0.06264796053314829,0.01078552034375317,0.7151052825506312,-0.6961202160548816,0.0745837390422821,-0.1026465892791748,-0.9919177889823914,-13.27554225921631,-2.320468902587891,-30.24772644042969,-1,2,1046909.397763917,2,0,1617672706.931171,1617670944.349944,97,1.77341,0,0,65.01641,0,0,1617672684.62291,1046906.655538,0,-1.878693,98.16064,0,0,0,0,0,1,1617672707.292254,1,0.14,1617672707.495724,-22.35145,-29.32553,0
1617672707.554971,9,0,0,0,0,0,0,0,0,0,1617672707.535258,-13.52329635620117,-2.228313446044922,-30.23124694824219,42.76421356201172,49.79378509521484,15.85488414764404,1046910.02456725,0.0690460205078125,-0.1363677978515625,-0.99676513671875,1046910.02705725,0.3357154130935669,-0.001470064860768616,-0.1129622384905815,1046909.98569225,-2.056594848632812,32.53752136230469,-101.2047424316406,1046909.99468125,-1.608310926692355,0.07041911112879394,0.1092630375164349,0.3580169975757599,-0.03204645588994026,-0.1643894612789154,0.004094399511814117,0.004431523382663727,-0.01881808042526245,2,-0.06317307626395506,0.01492004761550909,0.7173912709397597,-0.6936399497865544,0.06994134187698364,-0.1090457662940025,-0.9915730953216553,-13.52244472503662,-2.171768188476562,-30.13255310058594,-1,2,1046909.397763917,2,0,1617672706.931171,1617670944.349944,97,1.77341,0,0,65.01641,0,0,1617672684.62291,1046906.655538,0,-1.878693,98.16064,0,0,0,0,0,1,1617672707.292254,1,0.14,1617672707.540025,-21.10078,-29.70291,0
1617672707.59206,10,0,0,0,0,0,0,0,0,0,1617672707.575096,-13.39755153656006,-2.926246643066406,-30.07225799560547,43.06914901733398,50.09872055053711,15.85495948791504,1046910.05818725,0.0720062255859375,-0.1509246826171875,-0.9827880859375,1046910.02705725,0.3357154130935669,-0.001470064860768616,-0.1129622384905815,1046910.04566725,-1.959243774414062,31.72459411621094,-101.2382659912109,1046909.99468125,-1.608310926692355,0.07041911112879394,0.1092630375164349,0.3580169975757599,-0.03204645588994026,-0.1643894612789154,0.004094399511814117,0.004431523382663727,-0.01881808042526245,2,-0.06317307626395506,0.01492004761550909,0.7173912709397597,-0.6936399497865544,0.06994134187698364,-0.1090457662940025,-0.9915730953216553,-13.52244472503662,-2.171768188476562,-30.13255310058594,-1,2,1046910.04204525,1,2,1617672707.575452,1617670944.349944,97,1.77341,0,0,65.01641,0,0,1617672684.62291,1046907.603391,0,-1.931519,98.16125,0,0,0,0,0,1,1617672707.292254,1,0.14,1617672707.56236,-21.10078,-29.80305,0
1617672707.614495,11,0,0,0,0,0,0,0,0,0,1617672707.594726,-13.41541767120361,-3.169246673583984,-30.07913970947266,43.17018127441406,50.19975280761719,15.85499668121338,1046910.09180725,0.06683349609375,-0.1515655517578125,-0.965606689453125,1046910.06067725,0.06660778820514679,-0.1557927876710892,-0.08475883305072784,1046910.04566725,-1.959243774414062,31.72459411621094,-101.2382659912109,1046910.05445225,-1.616896120625551,0.06941736948417457,0.1266513588523973,0.1121192872524261,-0.1284659951925278,-0.0875931978225708,0.003154486417770386,-0.02497784793376923,0.01203173398971558,2,-0.06872507742527673,0.02182226845813754,0.7198152851213805,-0.690410515487313,0.06880607455968857,-0.1263130307197571,-0.9896013140678406,-13.36677932739258,-3.097665786743164,-30.02211761474609,-1,2,1046910.04204525,1,2,1617672707.575452,1617670944.349944,97,1.77341,0,0,65.01641,0,0,1617672684.62291,1046907.603391,0,-1.931519,98.16125,0,0,0,0,0,1,1617672707.292254,1,0.14,1617672707.604603,-21.10078,-29.47536,0
1617672707.661089,12,0,0,0,0,0,0,0,0,0,1617672707.654658,-13.79940223693848,-3.025741577148438,-30.07733154296875,43.2236213684082,50.25319290161133,15.8551082611084,1046910.12543025,0.0648040771484375,-0.116241455078125,-0.9588623046875,1046910.12792025,-0.1714223474264145,-0.236611470580101,-0.0247839093208313,1046910.10565225,-2.17022705078125,31.61769104003906,-101.3017578125,1046910.11422325,-1.618962675282293,0.05723279188792937,0.1204821693681077,-0.1923815906047821,-0.2659428417682648,-0.01636926084756851,0.009360074996948242,0.002270981669425964,0.03008103370666504,2,-0.06219247303333319,0.02386287057402222,0.7211320572282413,-0.6895877361588792,0.05678688734769821,-0.1201908960938454,-0.9911253452301025,-13.71067523956299,-3.08354377746582,-30.12043762207031,-1,2,1046910.04204525,1,2,1617672707.575452,1617670944.349944,97,1.77341,0,0,65.01641,0,0,1617672684.62291,1046907.603391,0,-1.931519,98.16125,0,0,0,0,0,1,1617672707.292254,1,0.14,1617672707.628827,-21.10078,-29.55556,0
1617672707.684653,13,0,0,0,0,0,0,0,0,0,1617672707.675019,-14.00701332092285,-2.845426559448242,-30.03546905517578,43.24139785766602,50.27096939086914,15.85514545440674,1046910.15905025,0.0466461181640625,-0.1131439208984375,-0.95184326171875,1046910.12792025,-0.1714223474264145,-0.236611470580101,-0.0247839093208313,1046910.10565225,-2.17022705078125,31.61769104003906,-101.3017578125,1046910.11422325,-1.618962675282293,0.05723279188792937,0.1204821693681077,-0.1923815906047821,-0.2659428417682648,-0.01636926084756851,0.009360074996948242,0.002270981669425964,0.03008103370666504,2,-0.06219247303333319,0.02386287057402222,0.7211320572282413,-0.6895877361588792,0.05678688734769821,-0.1201908960938454,-0.9911253452301025,-13.71067523956299,-3.08354377746582,-30.12043762207031,-1,2,1046910.04204525,1,2,1617672707.575452,1617670944.349944,97,1.77341,0,0,65.01641,0,0,1617672684.62291,1046907.603391,0,-1.931519,98.16125,0,0,0,0,0,1,1617672707.292254,1,0.14,1617672707.661613,-21.10078,-25.20421,0
1617672707.719365,14,0,0,0,0,0,0,0,0,0,1617672707.71437,-14.14414405822754,-2.821500778198242,-29.96051788330078,43.2020149230957,50.23158645629883,15.85516262054443,1046910.19267025,0.050323486328125,-0.108154296875,-1.006195068359375,1046910.16154025,-0.09673026949167252,-0.05414632707834244,-0.003803526749834418,1046910.16562625,-2.752273559570312,31.89338684082031,-101.0254058837891,1046910.17399425,-1.619270654918086,0.0483489072210792,0.1119792253726085,-0.06492927670478821,-0.008608517237007618,0.0299982950091362,0.001029741019010544,-0.004038333892822266,-0.0003900527954101562,2,-0.05606212118218012,0.02385858221720958,0.7217568635223961,-0.6894597911530225,0.04802737385034561,-0.1117453500628471,-0.9925755858421326,-14.16365337371826,-2.831390380859375,-29.93928527832031,-1,2,1046910.04204525,1,2,1617672707.575452,1617670944.349944,97,1.77341,0,0,65.01641,0,0,1617672684.62291,1046907.603391,0,-1.931519,98.16125,0,0,0,0,0,1,1617672707.292254,1,0.14,1617672707.695492,-21.10078,-25.84814,0
1617672707.754016,15,0,0,0,0,0,0,0,0,0,1617672707.734366,-14.18002700805664,-2.700851440429688,-29.93077850341797,43.16622161865234,50.19579315185547,15.85513877868652,1046910.22629325,0.04669189453125,-0.096435546875,-0.9914398193359375,1046910.19516225,0.02677115984261036,-0.009588977321982384,0.03460085391998291,1046910.22560325,-2.765457153320312,31.92974853515625,-100.9828796386719,1046910.17399425,-1.619270654918086,0.0483489072210792,0.1119792253726085,-0.06492927670478821,-0.008608517237007618,0.0299982950091362,0.001029741019010544,-0.004038333892822266,-0.0003900527954101562,2,-0.05606212118218012,0.02385858221720958,0.7217568635223961,-0.6894597911530225,0.04802737385034561,-0.1117453500628471,-0.9925755858421326,-14.16365337371826,-2.831390380859375,-29.93928527832031,-1,2,1046910.04204525,1,2,1617672707.575452,1617670944.349944,97,1.77341,0,0,65.01641,0,0,1617672684.62291,1046907.603391,0,-1.931519,98.16125,0,0,0,0,0,1,1617672707.292254,1,0.14,1617672707.7287,-21.10078,-25.30338,0
1617672707.783808,16,0,0,0,0,0,0,0,0,0,1617672707.774344,-14.22096824645996,-2.798948287963867,-30.04020690917969,43.17362213134766,50.20319366455078,15.85508251190186,1046910.25991325,0.048431396484375,-0.11456298828125,-0.988189697265625,1046910.22878325,0.0422944612801075,-0.01852601394057274,-0.01006355322897434,1046910.22560325,-2.765457153320312,31.92974853515625,-100.9828796386719,1046910.23376425,-1.618070671289498,0.04770775280058968,0.1132613974162297,0.02740595862269402,-0.01614679396152496,-0.008923353627324104,-0.002431601285934448,0.006635129451751709,0.01037609577178955,2,-0.05628619990781369,0.02450972712221888,0.7213243682134185,-0.6898713216082752,0.04738409817218781,-0.1130193993449211,-0.9924622774124146,-14.2314567565918,-2.762966156005859,-29.97311401367188,-1,2,1046910.04204525,1,2,1617672707.575452,1617670944.349944,97,1.77341,0,0,65.01641,0,0,1617672684.62291,1046907.603391,0,-1.931519,98.16125,0,0,0,0,0,1,1617672707.292254,1,0.14,1617672707.782209,-21.10078,-23.78602,0
1617672707.830061,17,0,0,0,0,0,0,0,0,0,1617672707.813887,-14.14937019348145,-2.876558303833008,-29.68245697021484,43.14742660522461,50.17699813842773,15.85500907897949,1046910.29353525,0.0506439208984375,-0.108062744140625,-1.035781860351562,1046910.26240325,0.003348392434418201,0.05156652256846428,-0.002159024588763714,1046910.28558725,-2.704208374023438,31.790283203125,-100.7935333251953,1046910.23376425,-1.618070671289498,0.04770775280058968,0.1132613974162297,0.02740595862269402,-0.01614679396152496,-0.008923353627324104,-0.002431601285934448,0.006635129451751709,0.01037609577178955,2,-0.05628619990781369,0.02450972712221888,0.7213243682134185,-0.6898713216082752,0.04738409817218781,-0.1130193993449211,-0.9924622774124146,-14.2314567565918,-2.762966156005859,-29.97311401367188,-1,2,1046910.04204525,1,2,1617672707.575452,1617670944.349944,97,1.77341,0,0,65.01641,0,0,1617672684.62291,1046907.603391,0,-1.931519,98.16125,0,0,0,0,0,1,1617672707.292254,1,0.14,1617672707.795658,-21.10078,-23.78602,0
1617672707.853668,18,0,0,0,0,0,0,0,0,0,1617672707.834152,-14.14513492584229,-2.828529357910156,-29.93410491943359,43.1322135925293,50.16178512573242,15.85496997833252,1046910.32715625,0.046051025390625,-0.1053619384765625,-1.014541625976562,1046910.29602525,0.008468852378427982,-0.01490597892552614,0.01202523708343506,1046910.28558725,-2.704208374023438,31.790283203125,-100.7935333251953,1046910.29353525,-1.617647186398249,0.04921728755761791,0.1127937410918392,-0.00288886297494173,-0.01353276614099741,0.01875152252614498,0.004215896129608154,0.01000041514635086,-0.04144746065139771,2,-0.05667481606473339,0.02380793076882165,0.7211490986898917,-0.6900471374251609,0.0488847978413105,-0.1125547215342522,-0.9924423098564148,-14.15655040740967,-2.889110565185547,-29.82430267333984,-1,2,1046910.04204525,1,2,1617672707.575452,1617670944.349944,97,1.77341,0,0,65.01641,0,0,1617672684.62291,1046907.603391,0,-1.931519,98.16125,0,0,0,0,0,1,1617672707.292254,1,0.14,1617672707.841036,-21.10078,-24.52411,0
1617672707.89,19,0,0,0,0,0,0,0,0,0,1617672707.873802,-14.14285564422607,-2.774141311645508,-29.93025970458984,43.17467880249023,50.20425033569336,15.85490417480469,1046910.36077625,0.0424346923828125,-0.106719970703125,-0.9927215576171875,1046910.32964625,0.02441373094916344,-0.03742486983537674,-0.01933321729302406,1046910.34556725,-2.679672241210938,31.8941650390625,-101.1298828125,1046910.29353525,-1.617647186398249,0.04921728755761791,0.1127937410918392,-0.00288886297494173,-0.01353276614099741,0.01875152252614498,0.004215896129608154,0.01000041514635086,-0.04144746065139771,2,-0.05667481606473339,0.02380793076882165,0.7211490986898917,-0.6900471374251609,0.0488847978413105,-0.1125547215342522,-0.9924423098564148,-14.15655040740967,-2.889110565185547,-29.82430267333984,-1,2,1046910.04204525,1,2,1617672707.575452,1617670944.349944,97,1.77341,0,0,65.01641,0,0,1617672684.62291,1046907.603391,0,-1.931519,98.16125,0,0,0,0,0,1,1617672707.292254,1,0.14,1617672707.862184,-11.15617,-14.50634,0
1617672707.923625,20,0,0,0,0,0,0,0,0,0,1617672707.91395,-14.28006267547607,-2.929344177246094,-29.88059234619141,43.26164627075195,50.29121780395508,15.8548412322998,1046910.39439825,0.052490234375,-0.1145782470703125,-1.01806640625,1046910.36326825,0.1220614612102509,0.01062361616641283,-0.03776335716247559,1046910.34556725,-2.679672241210938,31.8941650390625,-101.1298828125,1046910.35330625,-1.618449342762655,0.04690283512690726,0.1138837620189147,0.08264024555683136,-0.03751778602600098,-0.03976993262767792,-0.004284456372261047,0.006643131375312805,0.001249194145202637,2,-0.05620523011032529,0.02502305818641854,0.7214597558085866,-0.6897177815954458,0.0465819276869297,-0.1136377528309822,-0.9924296140670776,-14.09170055389404,-2.797740936279297,-29.99246215820312,-1,2,1046910.04204525,1,2,1617672707.575452,1617670944.349944,97,1.77341,0,0,65.01641,0,0,1617672684.62291,1046907.603391,0,-1.931519,98.16125,0,0,0,0,0,1,1617672707.292254,1,0.14,1617672707.902792,-11.15617,-16.38088,0
1617672707.962135,21,0,0,0,0,0,0,0,0,0,1617672707.953409,-14.28028774261475,-3.28046989440918,-29.86274719238281,43.35990142822266,50.38947296142578,15.85478687286377,1046910.42801925,0.049774169921875,-0.1237640380859375,-0.9556427001953125,1046910.43050925,0.1030664667487144,0.05715037137269974,-0.04047631844878197,1046910.40554525,-2.855575561523438,31.64939880371094,-100.9635162353516,1046910.41307725,-1.620840832239303,0.04732905238417317,0.1192973959804264,0.09692271798849106,0.002996540628373623,-0.03746897727251053,6.798654794692993e-06,-0.003788091242313385,0.03220123052597046,2,-0.05818831772508984,0.02690343054109142,0.7221136751207438,-0.6887976778769624,0.04697511717677116,-0.1190146282315254,-0.9917806386947632,-14.30506324768066,-3.17863655090332,-29.84176635742188,-1,2,1046910.04204525,1,2,1617672707.575452,1617670944.349944,97,1.77341,0,0,65.01641,0,0,1617672684.62291,1046907.603391,0,-1.931519,98.16125,0,0,0,0,0,1,1617672707.292254,1,0.14,1617672707.962107,-11.15617,-19.12134,0
1617672707.98343,22,0,0,0,0,0,0,0,0,0,1617672707.973713,-14.19466590881348,-3.382701873779297,-30.01303863525391,43.41336441040039,50.44293594360352,15.85475254058838,1046910.46163925,0.05419921875,-0.130035400390625,-0.9363555908203125,1046910.43050925,0.1030664667487144,0.05715037137269974,-0.04047631844878197,1046910.40554525,-2.855575561523438,31.64939880371094,-100.9635162353516,1046910.41307725,-1.620840832239303,0.04732905238417317,0.1192973959804264,0.09692271798849106,0.002996540628373623,-0.03746897727251053,6.798654794692993e-06,-0.003788091242313385,0.03220123052597046,2,-0.05818831772508984,0.02690343054109142,0.7221136751207438,-0.6887976778769624,0.04697511717677116,-0.1190146282315254,-0.9917806386947632,-14.30506324768066,-3.17863655090332,-29.84176635742188,-1,2,1046910.04204525,1,2,1617672707.575452,1617670944.349944,97,1.77341,0,0,65.01641,0,0,1617672684.62291,1046907.603391,0,-1.931519,98.16125,0,0,0,0,0,1,1617672707.292254,1,0.14,1617672707.962107,-11.15617,-19.12134,0
1617672708.022807,23,0,0,0,0,0,0,0,0,0,1617672708.013383,-14.07945823669434,-3.390111923217773,-30.07856750488281,43.45466232299805,50.48423385620117,15.85468769073486,1046910.49526125,0.077117919921875,-0.1440277099609375,-1.01849365234375,1046910.46413125,0.08778471499681473,0.1775518804788589,-0.03001835197210312,1046910.46552225,-2.707443237304688,31.31686401367188,-101.2297973632812,1046910.47284825,-1.623274796735887,0.05290578505139559,0.1236621442025526,0.05865754187107086,0.1617191433906555,-0.00784650631248951,0.01498192548751831,-0.0196123793721199,0.004997909069061279,2,-0.06166747817391629,0.02663802937774538,0.7226506968063316,-0.6879414104045855,0.05247728526592255,-0.123347207903862,-0.9909750819206238,-14.15791130065918,-3.3138427734375,-30.10001373291016,-1,2,1046910.04204525,1,2,1617672707.575452,1617670944.349944,97,1.77341,0,0,65.01641,0,0,1617672684.62291,1046907.603391,0,-1.931519,98.16125,0,0,0,0,0,1,1617672707.292254,1,0.14,1617672707.995407,-11.15617,-20.03168,0
1617672708.052876,24,0,0,0,0,0,0,0,0,0,1617672708.033294,-14.05471992492676,-3.541170120239258,-30.05158996582031,43.40290451049805,50.43247604370117,15.85465526580811,1046910.52888225,0.066802978515625,-0.1174774169921875,-1.00823974609375,1046910.49775125,-0.01243350002914667,0.02112605795264244,0.0437229797244072,1046910.52549725,-2.441452026367188,31.1932373046875,-101.3281860351562,1046910.47284825,-1.623274796735887,0.05290578505139559,0.1236621442025526,0.05865754187107086,0.1617191433906555,-0.00784650631248951,0.01498192548751831,-0.0196123793721199,0.004997909069061279,2,-0.06166747817391629,0.02663802937774538,0.7226506968063316,-0.6879414104045855,0.05247728526592255,-0.123347207903862,-0.9909750819206238,-14.15791130065918,-3.3138427734375,-30.10001373291016,-1,2,1046910.04204525,1,2,1617672707.575452,1617670944.349944,97,1.77341,0,0,65.01641,0,0,1617672684.62291,1046907.603391,0,-1.931519,98.16125,0,0,0,0,0,1,1617672707.292254,1,0.14,1617672708.028733,-11.15617,-20.99732,0
1617672708.092851,25,0,0,0,0,0,0,0,0,0,1617672708.073212,-13.93059539794922,-3.439186096191406,-30.21270751953125,43.31360626220703,50.34317779541016,15.85459041595459,1046910.562504667,0.0563812255859375,-0.118255615234375,-0.987945556640625,1046910.53137225,-0.1322041153907776,-0.02180463075637817,0.02366404980421066,1046910.52549725,-2.441452026367188,31.1932373046875,-101.3281860351562,1046910.53261825,-1.621040707413562,0.05408817659268949,0.1211152016869912,-0.1430504620075226,-0.0252516083419323,0.02391794882714748,0.006942238658666611,0.01261924207210541,-0.0002627968788146973,2,-0.06124986802530667,0.02523972781017845,0.7219252879582089,-0.6887926592258555,0.05366577953100204,-0.1208193153142929,-0.9912227988243103,-13.92662715911865,-3.45849609375,-30.18831634521484,-1,2,1046910.04204525,1,2,1617672707.575452,1617670944.349944,97,1.77341,0,0,65.01641,0,0,1617672684.62291,1046907.603391,0,-1.931519,98.16125,0,0,0,0,0,1,1617672707.292254,1,0.14,1617672708.084197,-11.15617,-23.2144,0
1617672708.130898,26,0,0,0,0,0,0,0,0,0,1617672708.112751,-13.91585731506348,-3.30396842956543,-29.80326843261719,43.24837875366211,50.27795028686523,15.85452175140381,1046910.596124667,0.0573883056640625,-0.1189422607421875,-1.025543212890625,1046910.564994667,-0.007218231912702322,0.0951123982667923,0.02728088945150375,1046910.585473667,-2.481979370117188,31.41339111328125,-100.9037933349609,1046910.53261825,-1.621040707413562,0.05408817659268949,0.1211152016869912,-0.1430504620075226,-0.0252516083419323,0.02391794882714748,0.006942238658666611,0.01261924207210541,-0.0002627968788146973,2,-0.06124986802530667,0.02523972781017845,0.7219252879582089,-0.6887926592258555,0.05366577953100204,-0.1208193153142929,-0.9912227988243103,-13.92662715911865,-3.45849609375,-30.18831634521484,-1,2,1046910.04204525,1,2,1617672707.575452,1617670944.349944,97,1.77341,0,0,65.01641,0,0,1617672684.62291,1046907.603391,0,-1.931519,98.16125,0,0,0,0,0,1,1617672707.292254,1,0.14,1617672708.095608,-11.15617,-23.2144,0
1617672708.152396,27,0,0,0,0,0,0,0,0,0,1617672708.13288,-13.8809289932251,-3.229595184326172,-29.96082305908203,43.21701812744141,50.24658966064453,15.8544864654541,1046910.629745667,0.0486297607421875,-0.1295928955078125,-1.012847900390625,1046910.598614667,0.05497856438159943,0.002489789389073849,0.02882099524140358,1046910.585473667,-2.481979370117188,31.41339111328125,-100.9037933349609,1046910.592389667,-1.619387396589333,0.05769056034928759,0.1202946107618161,0.0516345277428627,0.01411895826458931,0.03117283247411251,-0.001730307936668396,-0.002279229462146759,-0.02918767929077148,2,-0.06228807354516824,0.02365041485764328,0.7212701735163453,-0.6894419080042721,0.05724188312888145,-0.120004691183567,-0.9911217093467712,-13.91328430175781,-3.299352645874023,-29.80646514892578,-1,2,1046910.04204525,1,2,1617672707.575452,1617670944.349944,97,1.77341,0,0,65.01641,0,0,1617672684.62291,1046907.603391,0,-1.931519,98.16125,0,0,0,0,0,1,1617672707.292254,1,0.14,1617672708.142836,-11.15617,-24.79782,0
1617672708.20339,28,0,0,0,0,0,0,0,0,0,1617672708.192617,-13.95116233825684,-3.225263595581055,-29.96510314941406,43.13448715209961,50.16405868530273,15.85441589355469,1046910.663367667,0.050048828125,-0.1264190673828125,-1.015609741210938,1046910.632236667,-0.1109984219074249,-0.03566878288984299,0.01064971461892128,1046910.645455667,-2.5474853515625,31.43359375,-101.2345581054688,1046910.652160667,-1.617936042523097,0.05599176290458764,0.1164163672824972,-0.1394780278205872,-0.09815696626901627,0.01870251446962357,-0.004665035754442215,-0.01107418537139893,-0.02726137638092041,2,-0.06035969495051222,0.02278894092637031,0.7209426870190461,-0.689984799911957,0.05558371543884277,-0.1161535829305649,-0.9916747212409973,-13.94178104400635,-3.226831436157227,-29.96939849853516,-1,2,1046910.04204525,1,2,1617672707.575452,1617670944.349944,97,1.77341,0,0,65.01641,0,0,1617672684.62291,1046907.603391,0,-1.931519,98.16125,0,0,0,0,0,1,1617672707.292254,1,0.14,1617672708.162339,-11.15617,-25.22569,0
1617672708.222015,29,0,0,0,0,0,0,0,0,0,1617672708.21238,-13.97296905517578,-3.13092041015625,-29.99912261962891,43.11208343505859,50.14165496826172,15.85439109802246,1046910.696987667,0.0443115234375,-0.1049652099609375,-0.9874114990234375,1046910.699477667,0.02033323422074318,-0.01053333468735218,-0.005575061310082674,1046910.645455667,-2.5474853515625,31.43359375,-101.2345581054688,1046910.652160667,-1.617936042523097,0.05599176290458764,0.1164163672824972,-0.1394780278205872,-0.09815696626901627,0.01870251446962357,-0.004665035754442215,-0.01107418537139893,-0.02726137638092041,2,-0.06035969495051222,0.02278894092637031,0.7209426870190461,-0.689984799911957,0.05558371543884277,-0.1161535829305649,-0.9916747212409973,-13.94178104400635,-3.226831436157227,-29.96939849853516,-1,2,1046910.04204525,1,2,1617672707.575452,1617670944.349944,97,1.77341,0,0,65.01641,0,0,1617672684.62291,1046907.603391,0,-1.931519,98.16125,0,0,0,0,0,1,1617672707.292254,1,0.14,1617672708.203879,-11.15617,-26.23624,0
1617672708.251883,30,0,0,0,0,0,0,0,0,0,1617672708.23233,-13.99493026733398,-3.07398796081543,-29.48152160644531,43.1120491027832,50.14162063598633,15.85436344146729,1046910.730608667,0.0489044189453125,-0.105865478515625,-0.9687652587890625,1046910.699477667,0.02033323422074318,-0.01053333468735218,-0.005575061310082674,1046910.705439667,-2.565277099609375,31.62677001953125,-100.5208587646484,1046910.711931667,-1.617271392223026,0.05268880136274504,0.1140969561745483,0.0592648983001709,-0.01780281588435173,-0.02755309455096722,-0.002273064106702805,0.01462166011333466,0.008858203887939453,2,-0.05837905558807203,0.02307033583500388,0.7208814200810247,-0.690209947500402,0.05232200399041176,-0.1138495653867722,-0.992119312286377,-13.95940017700195,-3.104434967041016,-29.29920196533203,-1,2,1046910.04204525,1,2,1617672707.575452,1617670944.349944,97,1.77341,0,0,65.01641,0,0,1617672684.62291,1046907.603391,0,-1.931519,98.16125,0,0,0,0,0,1,1617672707.292254,1,0.14,1617672708.228954,-11.15617,-26.65586,0
1617672708.291751,31,0,0,0,0,0,0,0,0,0,1617672708.272442,-13.98376178741455,-2.993297576904297,-29.59535217285156,43.20154190063477,50.23111343383789,15.85429859161377,1046910.764230667,0.05511474609375,-0.116607666015625,-0.9869232177734375,1046910.733099667,0.08371593803167343,0.06353823095560074,-0.04313015937805176,1046910.765420667,-2.67626953125,31.7529296875,-101.1334075927734,1046910.711931667,-1.617271392223026,0.05268880136274504,0.1140969561745483,0.0592648983001709,-0.01780281588435173,-0.02755309455096722,-0.002273064106702805,0.01462166011333466,0.008858203887939453,2,-0.05837905558807203,0.02307033583500388,0.7208814200810247,-0.690209947500402,0.05232200399041176,-0.1138495653867722,-0.992119312286377,-13.95940017700195,-3.104434967041016,-29.29920196533203,-1,2,1046910.04204525,1,2,1617672707.575452,1617670944.349944,97,1.77341,0,0,65.01641,0,0,1617672684.62291,1046907.603391,0,-1.931519,98.16125,0,0,0,0,0,1,1617672707.292254,1,0.14,1617672708.261978,-11.15617,-27.49971,0
1617672708.327003,32,0,0,0,0,0,0,0,0,0,1617672708.312289,-14.0027322769165,-2.980049133300781,-29.93569183349609,43.27382659912109,50.30339813232422,15.85422515869141,1046910.797850667,0.055328369140625,-0.1243743896484375,-0.99017333984375,1046910.766720667,0.0352884829044342,0.02612321265041828,-0.03630101680755615,1046910.765420667,-2.67626953125,31.7529296875,-101.1334075927734,1046910.771702667,-1.619528146999256,0.05461090868664534,0.117331783905378,0.01805655285716057,0.02359230257570744,-0.03469159826636314,-0.0006195046007633209,-0.001833714544773102,0.01895725727081299,2,-0.06015786602073488,0.02364421890375987,0.7215052576519203,-0.6893853231122682,0.05420847982168198,-0.1170627549290657,-0.9916439652442932,-14.02061080932617,-2.991308212280273,-29.94702911376953,-1,2,1046910.04204525,1,2,1617672707.575452,1617670944.349944,97,1.77341,0,0,65.01641,0,0,1617672684.62291,1046907.603391,0,-1.931519,98.16125,1617672708.293942,587422867,1685438189,0,0,1,1617672707.292254,1,0.14,1617672708.294458,-11.15617,-28.14445,0
1617672708.371303,33,0,0,0,0,0,0,0,0,0,1617672708.352168,-13.9699649810791,-3.000602722167969,-29.60317993164062,43.28821563720703,50.31778717041016,15.85415649414062,1046910.831472667,0.0631561279296875,-0.1085357666015625,-1.015533447265625,1046910.800340667,-0.05031803250312805,0.01537869032472372,-0.01639095693826675,1046910.825394667,-2.53924560546875,31.688232421875,-100.7397613525391,1046910.771702667,-1.619528146999256,0.05461090868664534,0.117331783905378,0.01805655285716057,0.02359230257570744,-0.03469159826636314,-0.0006195046007633209,-0.001833714544773102,0.01895725727081299,2,-0.06015786602073488,0.02364421890375987,0.7215052576519203,-0.6893853231122682,0.05420847982168198,-0.1170627549290657,-0.9916439652442932,-14.02061080932617,-2.991308212280273,-29.94702911376953,-1,2,1046910.04204525,1,2,1617672707.575452,1617670944.349944,97,1.77341,0,0,65.01641,0,0,1617672684.62291,1046907.603391,0,-1.931519,98.16125,1617672708.293942,587422867,1685438189,0,0,1,1617672707.292254,1,0.14,1617672708.371237,-11.15617,-27.71652,0
1617672708.391283,34,0,0,0,0,0,0,0,0,0,1617672708.371915,-13.9436092376709,-2.969614028930664,-29.70680236816406,43.30321502685547,50.33278656005859,15.85412406921387,1046910.865093667,0.0575103759765625,-0.104736328125,-1.015029907226562,1046910.833962667,-0.07678159326314926,-0.05778739973902702,-0.01890045404434204,1046910.825394667,-2.53924560546875,31.688232421875,-100.7397613525391,1046910.831472667,-1.620256520771682,0.05427238691420169,0.1137851874447611,-0.08980923891067505,-0.06299200654029846,-0.01398838963359594,0.006224773824214935,0.01064980775117874,-0.01102691888809204,2,-0.05880906462502494,0.02249893094338038,0.7218737126685554,-0.6891543205019373,0.05389496311545372,-0.1135398149490356,-0.9920705556869507,-13.95789527893066,-2.972051620483398,-29.59592437744141,-1,2,1046910.04204525,1,2,1617672707.575452,1617670944.349944,97,1.77341,0,0,65.01641,0,0,1617672684.62291,1046907.603391,0,-1.931519,98.16125,1617672708.293942,587422867,1685438189,0,0,1,1617672707.292254,1,0.14,1617672708.371237,-11.15617,-27.71652,0
1617672708.430589,35,0,0,0,0,0,0,0,0,0,1617672708.411601,-13.95343017578125,-2.825893402099609,-29.60855865478516,43.38996505737305,50.41953659057617,15.8540563583374,1046910.898713667,0.057586669921875,-0.1224822998046875,-0.985137939453125,1046910.867583667,-0.01614275015890598,-0.04367557540535927,-0.04179298505187035,1046910.885368667,-2.506256103515625,31.87301635742188,-100.7505035400391,1046910.831472667,-1.620256520771682,0.05427238691420169,0.1137851874447611,-0.08980923891067505,-0.06299200654029846,-0.01398838963359594,0.006224773824214935,0.01064980775117874,-0.01102691888809204,2,-0.05880906462502494,0.02249893094338038,0.7218737126685554,-0.6891543205019373,0.05389496311545372,-0.1135398149490356,-0.9920705556869507,-13.95789527893066,-2.972051620483398,-29.59592437744141,-1,2,1046910.04204525,1,2,1617672707.575452,1617670944.349944,97,1.77341,0,0,65.01641,0,0,1617672684.62291,1046907.603391,0,-1.931519,98.16125,1617672708.293942,587422867,1685438189,0,0,1,1617672707.292254,1,0.14,1617672708.395591,-11.15617,-27.87938,0
1617672708.461563,36,0,0,0,0,0,0,0,0,0,1617672708.451499,-14.03769779205322,-2.779172897338867,-29.74570465087891,43.46943283081055,50.49900436401367,15.85398578643799,1046910.932335667,0.0646514892578125,-0.1328277587890625,-1.012237548828125,1046910.901205667,0.04496481269598007,0.02466859482228756,-0.04373416304588318,1046910.885368667,-2.506256103515625,31.87301635742188,-100.7505035400391,1046910.891243667,-1.622264490417803,0.05234721513500378,0.1119080970483935,0.03186476230621338,0.003830648958683014,-0.04886608943343163,0.006079040467739105,-0.01196729391813278,0.007077813148498535,2,-0.05744678529946023,0.02254047447465657,0.7226767548305462,-0.6884259078827967,0.05199601873755455,-0.1116746664047241,-0.992383599281311,-13.98158168792725,-2.788312911987305,-29.68256378173828,-1,2,1046910.04204525,1,2,1617672707.575452,1617670944.349944,97,1.77341,0,0,65.01641,0,0,1617672684.62291,1046907.603391,0,-1.931519,98.16125,1617672708.293942,587422867,1685438189,0,0,1,1617672707.292254,1,0.14,1617672708.445274,-11.15617,-24.49982,0
1617672708.500548,37,0,0,0,0,0,0,0,0,0,1617672708.491344,-13.97799491882324,-2.824502944946289,-29.87704467773438,43.47238159179688,50.501953125,15.85392951965332,1046910.965956667,0.058013916015625,-0.1231231689453125,-0.999481201171875,1046910.968446667,-0.02428616397082806,-0.01414431445300579,0.01088966522365808,1046910.945344667,-2.571456909179688,31.87420654296875,-100.8591003417969,1046910.951014667,-1.623469532983377,0.05253612532070014,0.1127677958189887,-0.003751913551241159,-0.0335821770131588,-0.001432439079508185,0.005957663059234619,-0.01038059592247009,-0.00633394718170166,2,-0.05779630837317459,0.02282179223960513,0.723060723694499,-0.6879839161103475,0.05217842757701874,-0.1125289425253868,-0.9922775030136108,-13.95471096038818,-2.826715469360352,-29.73759460449219,-1,2,1046910.04204525,1,2,1617672707.575452,1617670944.349944,97,1.77341,0,0,65.01641,0,0,1617672684.62291,1046907.603391,0,-1.931519,98.16125,1617672708.293942,587422867,1685438189,0,0,1,1617672707.292254,1,0.14,1617672708.500529,-11.15617,-26.22133,0
1617672708.521349,38,0,0,0,0,0,0,0,0,0,1617672708.511744,-14.0344409942627,-2.835529327392578,-29.95713806152344,43.44872283935547,50.47829437255859,15.85390377044678,1046910.999576667,0.056121826171875,-0.1023712158203125,-1.027786254882812,1046910.968446667,-0.02428616397082806,-0.01414431445300579,0.01088966522365808,1046910.945344667,-2.571456909179688,31.87420654296875,-100.8591003417969,1046910.951014667,-1.623469532983377,0.05253612532070014,0.1127677958189887,-0.003751913551241159,-0.0335821770131588,-0.001432439079508185,0.005957663059234619,-0.01038059592247009,-0.00633394718170166,2,-0.05779630837317459,0.02282179223960513,0.723060723694499,-0.6879839161103475,0.05217842757701874,-0.1125289425253868,-0.9922775030136108,-13.95471096038818,-2.826715469360352,-29.73759460449219,-1,2,1046910.04204525,1,2,1617672707.575452,1617670944.349944,97,1.77341,0,0,65.01641,0,0,1617672684.62291,1046908.551195,0,-1.973816,98.16177,1617672708.293942,587422867,1685438189,0,0,1,1617672707.292254,1,0.14,1617672708.500529,-11.15617,-26.22133,0
1617672708.563489,39,0,0,0,0,0,0,0,0,0,1617672708.551278,-14.12213134765625,-2.852603912353516,-29.90825653076172,43.43977737426758,50.4693489074707,15.85385322570801,1046911.033198667,0.045684814453125,-0.1094970703125,-0.9921112060546875,1046911.002068667,0.04410913959145546,-0.06904751062393188,0.00478277076035738,1046911.005324667,-2.581573486328125,31.83804321289062,-100.9900054931641,1046911.010785667,-1.622800119035069,0.05007989497242246,0.1132750605284831,0.05399478226900101,-0.04826617240905762,0.001433860277757049,-0.002679932862520218,0.008586578071117401,-0.003122568130493164,2,-0.05709020843931246,0.02383148984430508,0.7228861050056183,-0.6881921529773958,0.04973814636468887,-0.1130329743027687,-0.9923455119132996,-14.08074951171875,-2.85008430480957,-29.8875732421875,-1,2,1046910.04204525,1,2,1617672707.575452,1617670944.349944,97,1.77341,0,0,65.01641,0,0,1617672684.62291,1046908.551195,0,-1.973816,98.16177,1617672708.293942,587422867,1685438189,0,0,1,1617672707.292254,1,0.14,1617672708.528711,-11.15617,-26.83984,0
1617672708.59085,40,0,0,0,0,0,0,0,0,0,1617672708.571364,-14.1971607208252,-2.945945739746094,-29.82271575927734,43.4481086730957,50.47768020629883,15.8538236618042,1046911.066819667,0.049102783203125,-0.119232177734375,-0.98150634765625,1046911.069309667,0.09610415995121002,0.0183182880282402,-0.006029929500073195,1046911.065299667,-2.760360717773438,31.76429748535156,-100.8791656494141,1046911.010785667,-1.622800119035069,0.05007989497242246,0.1132750605284831,0.05399478226900101,-0.04826617240905762,0.001433860277757049,-0.002679932862520218,0.008586578071117401,-0.003122568130493164,2,-0.05709020843931246,0.02383148984430508,0.7228861050056183,-0.6881921529773958,0.04973814636468887,-0.1130329743027687,-0.9923455119132996,-14.08074951171875,-2.85008430480957,-29.8875732421875,-1,2,1046910.04204525,1,2,1617672707.575452,1617670944.349944,97,1.77341,0,0,65.01641,0,0,1617672684.62291,1046908.551195,0,-1.973816,98.16177,1617672708.293942,587422867,1685438189,0,0,1,1617672707.292254,1,0.14,1617672708.564091,-11.15617,-27.91059,0
1617672708.630348,41,0,0,0,0,0,0,0,0,0,1617672708.611141,-14.1766529083252,-2.990724563598633,-29.84812927246094,43.46620941162109,50.49578094482422,15.85375499725342,1046911.100441667,0.053741455078125,-0.125762939453125,-0.9802093505859375,1046911.069309667,0.09610415995121002,0.0183182880282402,-0.006029929500073195,1046911.065299667,-2.760360717773438,31.76429748535156,-100.8791656494141,1046911.070556667,-1.623241366018166,0.05025802601157479,0.1182237700541935,0.08465985953807831,0.01642739772796631,-0.00385967455804348,0.0005594640970230103,-0.004732087254524231,0.02033030986785889,2,-0.05884650650387169,0.02557661512011755,0.7228863200043868,-0.6879813041338896,0.04988620430231094,-0.1179485619068146,-0.9917658567428589,-14.15199756622314,-2.993986129760742,-29.79436492919922,-1,2,1046910.04204525,1,2,1617672707.575452,1617670944.349944,97,1.77341,0,0,65.01641,0,0,1617672684.62291,1046908.551195,0,-1.973816,98.16177,1617672708.293942,587422867,1685438189,0,0,1,1617672707.292254,1,0.14,1617672708.628604,-11.15617,-28.39264,0
1617672708.660484,42,0,0,0,0,0,0,0,0,0,1617672708.650668,-14.18629837036133,-3.00169563293457,-29.78395843505859,43.44868469238281,50.47825622558594,15.85368537902832,1046911.134061667,0.053070068359375,-0.11492919921875,-0.9965667724609375,1046911.102931667,-0.01123507786542177,0.03084313310682774,0.008752479217946529,1046911.125273667,-2.770965576171875,31.72064208984375,-100.9864501953125,1046911.070556667,-1.623241366018166,0.05025802601157479,0.1182237700541935,0.08465985953807831,0.01642739772796631,-0.00385967455804348,0.0005594640970230103,-0.004732087254524231,0.02033030986785889,2,-0.05884650650387169,0.02557661512011755,0.7228863200043868,-0.6879813041338896,0.04988620430231094,-0.1179485619068146,-0.9917658567428589,-14.15199756622314,-2.993986129760742,-29.79436492919922,-1,2,1046910.04204525,1,2,1617672707.575452,1617670944.349944,97,1.77341,0,0,65.01641,0,0,1617672684.62291,1046908.551195,0,-1.973816,98.16177,1617672708.293942,587422867,1685438189,0,0,1,1617672707.292254,1,0.14,1617672708.628604,-11.15617,-28.39264,0
1617672708.690397,43,0,0,0,0,0,0,0,0,0,1617672708.670734,-14.21806526184082,-2.936588287353516,-29.82282257080078,43.44505310058594,50.47462463378906,15.85365295410156,1046911.167682667,0.04827880859375,-0.117401123046875,-1.0020751953125,1046911.136551667,-0.04283561557531357,-0.05131432041525841,-0.003249056404456496,1046911.125273667,-2.770965576171875,31.72064208984375,-100.9864501953125,1046911.130326667,-1.622996820473264,0.05038203556556298,0.1176208452207936,-0.05645996332168579,-0.05570225417613983,0.002083782572299242,0.001226358115673065,0.002847887575626373,0.0005890727043151855,2,-0.05868766802347489,0.02530823329347304,0.7228166453452008,-0.6880781213571573,0.05001276358962059,-0.1173498257994652,-0.9918305277824402,-14.17914485931396,-2.956195831298828,-29.77597045898438,-1,2,1046910.04204525,1,2,1617672707.575452,1617670944.349944,97,1.77341,0,0,65.01641,0,0,1617672684.62291,1046908.551195,0,-1.973816,98.16177,1617672708.293942,587422867,1685438189,0,0,1,1617672707.292254,1,0.14,1617672708.670691,-11.15617,-26.2427,0
1617672708.730839,44,0,0,0,0,0,0,0,0,0,1617672708.710427,-14.17488861083984,-3.048377990722656,-29.74678802490234,43.42143630981445,50.45100784301758,15.85358619689941,1046911.201304667,0.045989990234375,-0.1074066162109375,-0.99725341796875,1046911.170174667,0.00735378684476018,-0.03052408620715141,0.01305428333580494,1046911.185245667,-2.75048828125,31.62199401855469,-100.9264984130859,1046911.190097667,-1.622492563827038,0.04831462929127477,0.1170410402665178,0.06189990788698196,-0.0302853100001812,0.01521710585802794,-0.001288678497076035,0.008818082511425018,-0.007145941257476807,2,-0.05774809451325542,0.02579480573405095,0.7227205562161257,-0.6882403195087698,0.04796541854739189,-0.1167740076780319,-0.9919995665550232,-14.2097806930542,-3.045534133911133,-29.82945251464844,-1,2,1046910.04204525,1,2,1617672707.575452,1617670944.349944,97,1.77341,0,0,65.01641,0,0,1617672684.62291,1046908.551195,0,-1.973816,98.16177,1617672708.293942,587422867,1685438189,0,0,1,1617672707.292254,1,0.14,1617672708.695646,-11.15617,-26.76956,0
1617672708.760361,45,0,0,0,0,0,0,0,0,0,1617672708.75036,-14.26183700561523,-2.960397720336914,-29.744140625,43.4116096496582,50.44118118286133,15.85351848602295,1046911.234924667,0.049468994140625,-0.11871337890625,-0.9912872314453125,1046911.203794667,0.0938897430896759,0.002292449120432138,0.005617139395326376,1046911.185245667,-2.75048828125,31.62199401855469,-100.9264984130859,1046911.190097667,-1.622492563827038,0.04831462929127477,0.1170410402665178,0.06189990788698196,-0.0302853100001812,0.01521710585802794,-0.001288678497076035,0.008818082511425018,-0.007145941257476807,2,-0.05774809451325542,0.02579480573405095,0.7227205562161257,-0.6882403195087698,0.04796541854739189,-0.1167740076780319,-0.9919995665550232,-14.2097806930542,-3.045534133911133,-29.82945251464844,-1,2,1046910.04204525,1,2,1617672707.575452,1617670944.349944,97,1.77341,0,0,65.01641,0,0,1617672684.62291,1046908.551195,0,-1.973816,98.16177,1617672708.293942,587422867,1685438189,0,0,1,1617672707.292254,1,0.14,1617672708.744491,-11.15617,-26.89472,0
1617672708.790724,46,0,0,0,0,0,0,0,0,0,1617672708.770168,-14.2022066116333,-2.975839614868164,-29.59241485595703,43.41412734985352,50.44369888305664,15.85348415374756,1046911.268545667,0.0595550537109375,-0.1287384033203125,-0.9956207275390625,1046911.237414667,0.05683478713035583,-0.009089368395507336,-0.00281602656468749,1046911.245229667,-2.746856689453125,31.69818115234375,-100.7320404052734,1046911.249868667,-1.622399199389003,0.04786846483730709,0.1205317033500826,0.01800000295042992,0.0255039781332016,0.00911295972764492,0.003202036023139954,-0.01043619215488434,0.0223236083984375,2,-0.05878570109207285,0.02721032236855376,0.7225974817924196,-0.6882273041926233,0.0475030243396759,-0.1202400699257851,-0.991607666015625,-14.23399543762207,-3.111005783081055,-29.6868896484375,-1,2,1046910.04204525,1,2,1617672707.575452,1617670944.349944,97,1.77341,0,0,65.01641,0,0,1617672684.62291,1046908.551195,0,-1.973816,98.16177,1617672708.293942,587422867,1685438189,0,0,1,1617672707.292254,1,0.14,1617672708.762111,-11.15617,-27.50766,0
1617672708.829747,47,0,0,0,0,0,0,0,0,0,1617672708.810203,-14.15423202514648,-3.367717742919922,-29.73008728027344,43.3621826171875,50.39175415039062,15.85341930389404,1046911.302167667,0.056549072265625,-0.1192779541015625,-0.981201171875,1046911.271037667,0.008329834789037704,-0.01285401359200478,0.02876879833638668,1046911.305207667,-2.705535888671875,31.29010009765625,-100.6155395507812,1046911.249868667,-1.622399199389003,0.04786846483730709,0.1205317033500826,0.01800000295042992,0.0255039781332016,0.00911295972764492,0.003202036023139954,-0.01043619215488434,0.0223236083984375,2,-0.05878570109207285,0.02721032236855376,0.7225974817924196,-0.6882273041926233,0.0475030243396759,-0.1202400699257851,-0.991607666015625,-14.23399543762207,-3.111005783081055,-29.6868896484375,-1,2,1046910.04204525,1,2,1617672707.575452,1617670944.349944,97,1.77341,0,0,65.01641,0,0,1617672684.62291,1046908.551195,0,-1.973816,98.16177,1617672708.293942,587422867,1685438189,0,0,1,1617672707.292254,1,0.14,1617672708.828777,-12.82801,-26.69619,0
1617672708.861277,48,0,0,0,0,0,0,0,0,0,1617672708.85002,-14.18839359283447,-3.295427322387695,-29.70628356933594,43.28736114501953,50.31693267822266,15.85335445404053,1046911.335787667,0.050323486328125,-0.123504638671875,-0.978515625,1046911.304657667,0.004219246096909046,-0.04507080465555191,0.03038586862385273,1046911.305207667,-2.705535888671875,31.29010009765625,-100.6155395507812,1046911.309639667,-1.620719891546922,0.04596858192879056,0.1201657493630496,-0.01600321009755135,-0.04622193053364754,0.03260935842990875,0.007983211427927017,0.001087099313735962,0.01914483308792114,2,-0.0579969537545412,0.02768281559656453,0.7220857589071242,-0.6888122914477413,0.04562102258205414,-0.1198767647147179,-0.9917400479316711,-14.19014358520508,-3.341228485107422,-29.67893981933594,-1,2,1046910.04204525,1,2,1617672707.575452,1617670944.349944,97,1.77341,0,0,65.01641,0,0,1617672684.62291,1046908.551195,0,-1.973816,98.16177,1617672708.293942,587422867,1685438189,0,0,1,1617672707.292254,1,0.14,1617672708.828777,-12.82801,-26.69619,0
1617672708.899486,49,0,0,0,0,0,0,0,0,0,1617672708.889916,-14.25612640380859,-3.096193313598633,-29.71235656738281,43.20418548583984,50.23375701904297,15.85329055786133,1046911.369410667,0.0411224365234375,-0.1282501220703125,-0.971160888671875,1046911.338277667,-0.05143336206674576,-0.03264742344617844,0.03123488463461399,1046911.365188667,-2.829864501953125,31.6015625,-100.8937530517578,1046911.309639667,-1.620719891546922,0.04596858192879056,0.1201657493630496,-0.01600321009755135,-0.04622193053364754,0.03260935842990875,0.007983211427927017,0.001087099313735962,0.01914483308792114,2,-0.0579969537545412,0.02768281559656453,0.7220857589071242,-0.6888122914477413,0.04562102258205414,-0.1198767647147179,-0.9917400479316711,-14.19014358520508,-3.341228485107422,-29.67893981933594,-1,2,1046910.04204525,1,2,1617672707.575452,1617670944.349944,97,1.77341,0,0,65.01641,0,0,1617672684.62291,1046908.551195,0,-1.973816,98.16177,1617672708.293942,587422867,1685438189,0,0,1,1617672707.292254,1,0.14,1617672708.895417,-14.49984,-27.79227,0
1617672708.929189,50,0,0,0,0,0,0,0,0,0,1617672708.909851,-14.42934417724609,-3.019468307495117,-29.86918640136719,43.14875030517578,50.17832183837891,15.85325813293457,1046911.403030667,0.0405731201171875,-0.1264190673828125,-1.00396728515625,1046911.371900667,-0.04492193460464478,0.03685175627470016,0.04500449076294899,1046911.365188667,-2.829864501953125,31.6015625,-100.8937530517578,1046911.369410667,-1.61854886229615,0.04495709807765302,0.117304809123598,-0.05445535108447075,0.02285227179527283,0.04292173311114311,-0.004517633467912674,-0.01389969140291214,0.01841509342193604,2,-0.05667846474916881,0.02693401821253752,0.7214504304197272,-0.689616852137841,0.04463310167193413,-0.1170359700918198,-0.9921241998672485,-14.32707405090332,-3.027900695800781,-29.82096862792969,-1,2,1046910.04204525,1,2,1617672707.575452,1617670944.349944,97,1.77341,0,0,65.01641,0,0,1617672684.62291,1046908.551195,0,-1.973816,98.16177,1617672708.293942,587422867,1685438189,0,0,1,1617672707.292254,1,0.14,1617672708.928728,-15.05712,-28.51025,0
1617672708.9593,51,0,0,0,0,0,0,0,0,0,1617672708.949549,-14.293288230896,-2.859943389892578,-29.75429534912109,43.01942825317383,50.04899978637695,15.85319232940674,1046911.436650667,0.0477294921875,-0.10968017578125,-1.032684326171875,1046911.405520667,-0.01819471642374992,0.05541558936238289,0.05897250771522522,1046911.425165667,-2.83355712890625,31.86984252929688,-100.9110412597656,1046911.369410667,-1.61854886229615,0.04495709807765302,0.117304809123598,-0.05445535108447075,0.02285227179527283,0.04292173311114311,-0.004517633467912674,-0.01389969140291214,0.01841509342193604,2,-0.05667846474916881,0.02693401821253752,0.7214504304197272,-0.689616852137841,0.04463310167193413,-0.1170359700918198,-0.9921241998672485,-14.32707405090332,-3.027900695800781,-29.82096862792969,-1,2,1046910.04204525,1,2,1617672707.575452,1617670944.349944,97,1.77341,0,0,65.01641,0,0,1617672684.62291,1046908.551195,0,-1.973816,98.16177,1617672708.293942,587422867,1685438189,0,0,1,1617672707.292254,1,0.14,1617672708.928728,-15.05712,-28.51025,0
1617672708.999104,52,0,0,0,0,0,0,0,0,0,1617672708.989975,-14.32267379760742,-2.899589538574219,-29.86372375488281,42.97269821166992,50.00226974487305,15.85312557220459,1046911.470273667,0.0440521240234375,-0.136627197265625,-1.005813598632812,1046911.439142667,0.00720491586253047,-0.0507795587182045,0.01184147968888283,1046911.425165667,-2.83355712890625,31.86984252929688,-100.9110412597656,1046911.429180667,-1.615360574793534,0.04692839504043395,0.116066472510681,-0.005815960001200438,-0.03438232094049454,0.02782057225704193,0.001073017716407776,0.006003811955451965,-0.03948366641998291,2,-0.05700481642391148,0.02571559820464117,0.7203300171427101,-0.6908066854506176,0.04659554734826088,-0.1158060505986214,-0.9921783208847046,-14.31245708465576,-2.797151565551758,-29.83509826660156,-1,2,1046910.04204525,1,2,1617672707.575452,1617670944.349944,97,1.77341,0,0,65.01641,0,0,1617672684.62291,1046908.551195,0,-1.973816,98.16177,1617672708.293942,587422867,1685438189,0,0,1,1617672707.292254,1,0.14,1617672708.995634,-16.72896,-28.61477,0
1617672709.030906,53,0,0,0,0,0,0,0,0,0,1617672709.029299,-14.42286968231201,-2.878173828125,-29.87328338623047,42.83290863037109,49.86248016357422,15.85305690765381,1046911.503893667,0.038818359375,-0.1247406005859375,-1.004547119140625,1046911.472763667,-0.0154159739613533,-0.0634697824716568,0.04253946989774704,1046911.485137667,-2.987106323242188,31.80804443359375,-100.8680114746094,1046911.488951667,-1.613432297327715,0.04269821532117109,0.1157055036365171,-0.04036619514226913,-0.05026601254940033,0.06807273626327515,-0.00214703381061554,-0.0140996128320694,-0.008659839630126953,2,-0.05538283072599967,0.02699293524800472,0.719792867498999,-0.6914494788265331,0.04239983111619949,-0.1154475063085556,-0.992408275604248,-14.39718151092529,-2.931140899658203,-29.77529907226562,-1,2,1046910.04204525,1,2,1617672707.575452,1617670944.349944,97,1.77341,0,0,65.01641,0,0,1617672684.62291,1046908.551195,0,-1.973816,98.16177,1617672708.293942,587422867,1685438189,0,0,1,1617672707.292254,1,0.14,1617672708.995634,-16.72896,-28.61477,0
1617672709.059214,54,0,0,0,0,0,0,0,0,0,1617672709.049152,-14.43119144439697,-2.815900802612305,-29.82221221923828,42.74321365356445,49.77278518676758,15.8530330657959,1046911.537513667,0.038726806640625,-0.10687255859375,-1.009368896484375,1046911.506383667,-0.01033892389386892,-0.04174771159887314,0.07564522325992584,1046911.485137667,-2.987106323242188,31.80804443359375,-100.8680114746094,1046911.488951667,-1.613432297327715,0.04269821532117109,0.1157055036365171,-0.04036619514226913,-0.05026601254940033,0.06807273626327515,-0.00214703381061554,-0.0140996128320694,-0.008659839630126953,2,-0.05538283072599967,0.02699293524800472,0.719792867498999,-0.6914494788265331,0.04239983111619949,-0.1154475063085556,-0.992408275604248,-14.39718151092529,-2.931140899658203,-29.77529907226562,-1,2,1046910.04204525,1,2,1617672707.575452,1617670944.349944,97,1.77341,0,0,65.01641,0,0,1617672684.62291,1046908.551195,0,-1.973816,98.16177,1617672708.293942,587422867,1685438189,0,0,1,1617672707.292254,1,0.14,1617672709.043882,-17.84352,-28.71065,0
1617672709.101233,55,0,0,0,0,0,0,0,0,0,1617672709.089236,-14.47969627380371,-2.768373489379883,-29.88523864746094,42.59518814086914,49.62475967407227,15.85299777984619,1046911.571137042,0.0361785888671875,-0.0995635986328125,-0.989105224609375,1046911.540005667,0.04255944490432739,-0.06630045920610428,0.06576969474554062,1046911.545113667,-2.911102294921875,31.99668884277344,-100.8875274658203,1046911.548722667,-1.608943028488298,0.03896707456226958,0.116053663039469,0.03466188162565231,-0.07856462150812149,0.06231369450688362,0.0005352906882762909,0.01337634027004242,-0.0091438889503479,2,-0.05422361637007973,0.02828678773038629,0.7183315771315224,-0.6930074681294338,0.03869516029953957,-0.1157933250069618,-0.9925193190574646,-14.3995532989502,-2.737577438354492,-29.78531646728516,-1,2,1046910.04204525,1,2,1617672707.575452,1617670944.349944,97,1.77341,0,0,65.01641,0,0,1617672684.62291,1046908.551195,0,-1.973816,98.16177,1617672708.293942,587422867,1685438189,0,0,1,1617672707.292254,1,0.14,1617672709.06213,-18.4008,-29.23071,0
1617672709.128942,56,0,0,0,0,0,0,0,0,0,1617672709.109122,-14.4631233215332,-2.805692672729492,-29.81817626953125,42.55587387084961,49.58544540405273,15.85297012329102,1046911.604757042,0.03533935546875,-0.1136474609375,-0.9824371337890625,1046911.573627042,0.05289623886346817,-0.04442339017987251,0.03310016170144081,1046911.605094042,-2.983200073242188,31.84065246582031,-100.67822265625,1046911.548722667,-1.608943028488298,0.03896707456226958,0.116053663039469,0.03466188162565231,-0.07856462150812149,0.06231369450688362,0.0005352906882762909,0.01337634027004242,-0.0091438889503479,2,-0.05422361637007973,0.02828678773038629,0.7183315771315224,-0.6930074681294338,0.03869516029953957,-0.1157933250069618,-0.9925193190574646,-14.3995532989502,-2.737577438354492,-29.78531646728516,-1,2,1046910.04204525,1,2,1617672707.575452,1617670944.349944,97,1.77341,0,0,65.01641,0,0,1617672684.62291,1046908.551195,0,-1.973816,98.16177,1617672708.293942,587422867,1685438189,0,0,1,1617672707.292254,1,0.14,1617672709.128876,-20.07263,-30.58178,0
