loggingTime,loggingSample,locationTimestamp_since1970,locationLatitude,locationLongitude,locationAltitude,locationSpeed,locationCourse,locationVerticalAccuracy,locationHorizontalAccuracy,locationFloor,locationHeadingTimestamp_since1970,locationHeadingX,locationHeadingY,locationHeadingZ,locationTrueHeading,locationMagneticHeading,locationHeadingAccuracy,accelerometerTimestamp_sinceReboot,accelerometerAccelerationX,accelerometerAccelerationY,accelerometerAccelerationZ,gyroTimestamp_sinceReboot,gyroRotationX,gyroRotationY,gyroRotationZ,magnetometerTimestamp_sinceReboot,magnetometerX,magnetometerY,magnetometerZ,motionTimestamp_sinceReboot,motionYaw,motionRoll,motionPitch,motionRotationRateX,motionRotationRateY,motionRotationRateZ,motionUserAccelerationX,motionUserAccelerationY,motionUserAccelerationZ,motionAttitudeReferenceFrame,motionQuaternionX,motionQuaternionY,motionQuaternionZ,motionQuaternionW,motionGravityX,motionGravityY,motionGravityZ,motionMagneticFieldX,motionMagneticFieldY,motionMagneticFieldZ,motionHeading,motionMagneticFieldCalibrationAccuracy,activityTimestamp_sinceReboot,activity,activityActivityConfidence,activityActivityStartDate,pedometerStartDate,pedometerNumberofSteps,pedometerAverageActivePace,pedometerCurrentPace,pedometerCurrentCadence,pedometerDistance,pedometerFloorAscended,pedometerFloorDescended,pedometerEndDate,altimeterTimestamp_sinceReboot,altimeterReset,altimeterRelativeAltitude,altimeterPressure,IP_Timestamp_since1970,IP_en0,IP_pdp_ip0,deviceID,deviceOrientationTimeStamp_since1970,deviceOrientation,batteryTimeStamp_since1970,batteryState,batteryLevel,avAudioRecorder_Timestamp_since1970,avAudioRecorderPeakPower,avAudioRecorderAveragePower,label
1617673907.053286,1,0,0,0,0,0,0,0,0,0,1617673907.039012,-14.29119777679443,-1.591915130615234,-33.48717498779297,66.85018157958984,73.87852478027344,17.06080627441406,1048109.437707167,0.003631591796875,-0.10345458984375,-0.8938751220703125,1048109.416538167,0.6958930492401123,0.3490692973136902,0.1601896733045578,1048109.404680167,-3.167739868164062,33.15872192382812,-103.9114074707031,1048109.416538167,-1.69475419404504,0.03433729064249738,0.1005958589836141,0.6845393776893616,0.343762993812561,0.162115067243576,-0.0002214722335338593,0.04311426728963852,-0.06483083963394165,2,-0.04612763879894621,0.02632931918691379,0.7479171394405366,-0.6616638578251184,0.03415698558092117,-0.1004262790083885,-0.9943580031394958,-14.4274845123291,-1.505287170410156,-33.43093872070312,-1,2,1048107.07465925,1,2,1617673904.663829,1617673410.617,79,1.496211,0,0,51.15003,0,0,1617673906.263914,1048106.595935,0,-0.4624023,98.16087,0,0,0,0,0,1,1617673907.041595,1,0.1,1617673907.053263,-20.6412,-28.50868,0
1617673907.078415,2,0,0,0,0,0,0,0,0,0,1617673907.058723,-13.99824333190918,-1.768756866455078,-33.76291656494141,66.80054473876953,73.82888793945312,17.0610523223877,1048109.471328167,0.0686798095703125,-0.09521484375,-1.068878173828125,1048109.450159167,0.4315865635871887,0.7682039737701416,0.02309147082269192,1048109.464665167,-1.951980590820312,32.3148193359375,-104.2053680419922,1048109.416538167,-1.69475419404504,0.03433729064249738,0.1005958589836141,0.6845393776893616,0.343762993812561,0.162115067243576,-0.0002214722335338593,0.04311426728963852,-0.06483083963394165,2,-0.04612763879894621,0.02632931918691379,0.7479171394405366,-0.6616638578251184,0.03415698558092117,-0.1004262790083885,-0.9943580031394958,-14.4274845123291,-1.505287170410156,-33.43093872070312,-1,2,1048107.07465925,1,2,1617673904.663829,1617673410.617,79,1.496211,0,0,51.15003,0,0,1617673906.263914,1048106.595935,0,-0.4624023,98.16087,0,0,0,0,0,1,1617673907.041595,1,0.1,1617673907.053263,-20.6412,-28.50868,0
1617673907.118176,3,0,0,0,0,0,0,0,0,0,1617673907.098673,-13.05788230895996,-2.493198394775391,-34.19941711425781,67.02907562255859,74.05741882324219,17.06154441833496,1048109.504951167,0.1135711669921875,-0.1613922119140625,-1.112594604492188,1048109.483780167,0.0297099594026804,0.02736371383070946,-0.1009202226996422,1048109.464665167,-1.951980590820312,32.3148193359375,-104.2053680419922,1048109.476310167,-1.694600627460269,0.07214061119498977,0.1272322042316547,0.07099179178476334,0.1606353223323822,-0.1208778619766235,-0.001076161861419678,0.01759049296379089,-0.09084802865982056,2,-0.06903266196372496,0.02379146142091831,0.7459755708764206,-0.6619584710784701,0.07149544358253479,-0.1268892139196396,-0.9893369078636169,-13.21443748474121,-2.393463134765625,-33.92142486572266,-1,2,1048107.07465925,1,2,1617673904.663829,1617673410.617,79,1.496211,0,0,51.15003,0,0,1617673906.263914,1048106.595935,0,-0.4624023,98.16087,0,0,0,0,0,1,1617673907.041595,1,0.1,1617673907.113834,-21.75576,-29.11712,0
1617673907.148926,4,0,0,0,0,0,0,0,0,0,1617673907.138531,-12.93731880187988,-2.787281036376953,-34.48009490966797,67.04913330078125,74.07747650146484,17.06203651428223,1048109.538572167,0.0680084228515625,-0.1535491943359375,-0.9891510009765625,1048109.517403167,0.001942243310622871,-0.5364980697631836,0.009512012824416161,1048109.524648167,-1.54949951171875,31.81077575683594,-104.9721069335938,1048109.476310167,-1.694600627460269,0.07214061119498977,0.1272322042316547,0.07099179178476334,0.1606353223323822,-0.1208778619766235,-0.001076161861419678,0.01759049296379089,-0.09084802865982056,2,-0.06903266196372496,0.02379146142091831,0.7459755708764206,-0.6619584710784701,0.07149544358253479,-0.1268892139196396,-0.9893369078636169,-13.21443748474121,-2.393463134765625,-33.92142486572266,-1,2,1048107.07465925,1,2,1617673904.663829,1617673410.617,79,1.496211,0,0,51.15003,0,0,1617673906.263914,1048106.595935,0,-0.4624023,98.16087,0,0,0,0,0,1,1617673907.041595,1,0.1,1617673907.113834,-21.75576,-29.11712,0
1617673907.178384,5,0,0,0,0,0,0,0,0,0,1617673907.158333,-13.17979049682617,-2.844934463500977,-34.290771484375,66.9244384765625,73.95278167724609,17.06228446960449,1048109.572193167,0.00146484375,-0.0974578857421875,-0.8888092041015625,1048109.551024167,0.209636315703392,-0.2044998705387115,0.1125116273760796,1048109.524648167,-1.54949951171875,31.81077575683594,-104.9721069335938,1048109.536082167,-1.696020670575832,0.05372695460837609,0.1276222765676372,0.09934407472610474,-0.4723818600177765,0.1101227551698685,0.02780553326010704,-0.02770739793777466,-0.0177273154258728,2,-0.06226898562087397,0.03007517944680774,0.7470363853048109,-0.6611767554956927,0.05326437577605247,-0.1272761225700378,-0.9904361367225647,-13.03987979888916,-2.799684524536133,-34.43885040283203,-1,2,1048107.07465925,1,2,1617673904.663829,1617673410.617,79,1.496211,0,0,51.15003,0,0,1617673906.263914,1048106.595935,0,-0.4624023,98.16087,0,0,0,0,0,1,1617673907.041595,1,0.1,1617673907.162181,-22.87031,-28.8967,0
1617673907.219066,6,0,0,0,0,0,0,0,0,0,1617673907.217978,-13.54964351654053,-3.04389762878418,-34.27220916748047,67.03739166259766,74.06573486328125,17.06302261352539,1048109.605816167,0.01593017578125,-0.1198883056640625,-0.927490234375,1048109.584647167,0.2601410448551178,0.3141001462936401,-0.05336921662092209,1048109.584635167,-2.094940185546875,31.62257385253906,-104.5569000244141,1048109.595854167,-1.694527882619113,0.05455681562554796,0.1410128084313941,0.1845566928386688,0.3836799561977386,-0.08097837865352631,-0.04861743748188019,0.02468594908714294,0.09065186977386475,2,-0.06701285415791389,0.03476696613039128,0.746059520679901,-0.6615856834712749,0.0539885014295578,-0.1405459493398666,-0.9886010885238647,-13.60088157653809,-2.975069046020508,-34.21358489990234,-1,2,1048107.07465925,1,2,1617673904.663829,1617673410.617,79,1.496211,0,0,51.15003,0,0,1617673906.263914,1048106.595935,0,-0.4624023,98.16087,0,0,0,0,0,1,1617673907.041595,1,0.1,1617673907.218948,-23.40646,-27.70968,0
1617673907.247692,7,0,0,0,0,0,0,0,0,0,1617673907.238289,-13.2912015914917,-3.281816482543945,-34.21890258789062,67.23038482666016,74.25872802734375,17.06326675415039,1048109.639437167,0.06591796875,-0.1490325927734375,-0.9809112548828125,1048109.618268167,0.02482891641557217,0.3189976811408997,-0.1690643876791,1048109.584635167,-2.094940185546875,31.62257385253906,-104.5569000244141,1048109.595854167,-1.694527882619113,0.05455681562554796,0.1410128084313941,0.1845566928386688,0.3836799561977386,-0.08097837865352631,-0.04861743748188019,0.02468594908714294,0.09065186977386475,2,-0.06701285415791389,0.03476696613039128,0.746059520679901,-0.6615856834712749,0.0539885014295578,-0.1405459493398666,-0.9886010885238647,-13.60088157653809,-2.975069046020508,-34.21358489990234,-1,2,1048107.07465925,1,2,1617673904.663829,1617673410.617,79,1.496211,0,0,51.15003,0,0,1617673906.263914,1048106.595935,0,-0.4624023,98.16087,0,0,0,0,0,1,1617673907.041595,1,0.1,1617673907.247254,-23.40646,-28.29262,0
1617673907.282777,8,0,0,0,0,0,0,0,0,0,1617673907.277875,-12.96797752380371,-3.263080596923828,-34.50818634033203,67.49689483642578,74.52523803710938,17.06375885009766,1048109.673058167,0.0781707763671875,-0.163604736328125,-0.9570770263671875,1048109.651889167,-0.2750622034072876,0.08274787664413452,-0.1529527902603149,1048109.644618167,-1.61737060546875,31.24261474609375,-104.7506103515625,1048109.655626167,-1.703735863296893,0.07023010396712663,0.1367138502396913,-0.3030816912651062,0.08652108907699585,-0.1231291815638542,0.02526993304491043,-0.03078010678291321,0.01329731941223145,2,-0.07131299550623799,0.02830039241652017,0.7487123727411242,-0.6584400249709967,0.06951761990785599,-0.1362883746623993,-0.9882270693778992,-13.00590419769287,-3.327278137207031,-34.39112091064453,-1,2,1048107.07465925,1,2,1617673904.663829,1617673410.617,79,1.496211,0,0,51.15003,0,0,1617673906.263914,1048106.595935,0,-0.4624023,98.16087,0,0,0,0,0,1,1617673907.041595,1,0.1,1617673907.282759,-23.40646,-25.87737,0
1617673907.317356,9,0,0,0,0,0,0,0,0,0,1617673907.297953,-12.86108779907227,-3.246358871459961,-34.50957489013672,67.42243194580078,74.45077514648438,17.06400489807129,1048109.706682167,0.0684051513671875,-0.0727081298828125,-1.051437377929688,1048109.685513167,-0.1210049837827682,0.3250630497932434,0.06727171689271927,1048109.704599167,-1.249526977539062,31.55856323242188,-104.8370056152344,1048109.655626167,-1.703735863296893,0.07023010396712663,0.1367138502396913,-0.3030816912651062,0.08652108907699585,-0.1231291815638542,0.02526993304491043,-0.03078010678291321,0.01329731941223145,2,-0.07131299550623799,0.02830039241652017,0.7487123727411242,-0.6584400249709967,0.06951761990785599,-0.1362883746623993,-0.9882270693778992,-13.00590419769287,-3.327278137207031,-34.39112091064453,-1,2,1048107.07465925,1,2,1617673904.663829,1617673410.617,79,1.496211,0,0,51.15003,0,0,1617673906.263914,1048106.595935,0,-0.4624023,98.16087,0,0,0,0,0,1,1617673907.041595,1,0.1,1617673907.313882,-23.40646,-26.14484,0
1617673907.347426,10,0,0,0,0,0,0,0,0,0,1617673907.337654,-12.53289699554443,-3.030012130737305,-34.52195739746094,67.52626800537109,74.55461120605469,17.06449890136719,1048109.740307125,0.07464599609375,-0.0897216796875,-1.03662109375,1048109.719134167,0.0505654402077198,0.02433276921510696,-0.09993751347064972,1048109.704599167,-1.249526977539062,31.55856323242188,-104.8370056152344,1048109.715399167,-1.703085900545146,0.08346588465766591,0.1286588596554615,0.03781517595052719,0.07292523235082626,-0.07799584418535233,-0.008629083633422852,0.06707067787647247,-0.07806283235549927,2,-0.07363719096483516,0.02088962313475034,0.748321105562054,-0.6589055730227815,0.08267994970083237,-0.128304198384285,-0.9882823824882507,-12.68502426147461,-2.987033843994141,-34.48332214355469,-1,2,1048107.07465925,1,2,1617673904.663829,1617673410.617,79,1.496211,0,0,51.15003,0,0,1617673906.263914,1048106.595935,0,-0.4624023,98.16087,0,0,0,0,0,1,1617673907.041595,1,0.1,1617673907.347394,-23.40646,-26.49494,0
1617673907.388892,11,0,0,0,0,0,0,0,0,0,1617673907.377539,-12.5147876739502,-3.150190353393555,-34.62342071533203,67.90938568115234,74.93772888183594,17.06499099731445,1048109.773930125,0.064453125,-0.12689208984375,-0.9904632568359375,1048109.752759125,-0.008209460414946079,-0.1651266366243362,-0.1741683334112167,1048109.764581125,-1.078277587890625,31.409423828125,-105.0652313232422,1048109.715399167,-1.703085900545146,0.08346588465766591,0.1286588596554615,0.03781517595052719,0.07292523235082626,-0.07799584418535233,-0.008629083633422852,0.06707067787647247,-0.07806283235549927,2,-0.07363719096483516,0.02088962313475034,0.748321105562054,-0.6589055730227815,0.08267994970083237,-0.128304198384285,-0.9882823824882507,-12.68502426147461,-2.987033843994141,-34.48332214355469,-1,2,1048107.07465925,1,2,1617673904.663829,1617673410.617,79,1.496211,0,0,51.15003,0,0,1617673906.263914,1048106.595935,0,-0.4624023,98.16087,0,0,0,0,0,1,1617673907.041595,1,0.1,1617673907.347394,-23.40646,-26.49494,0
1617673907.41727,12,0,0,0,0,0,0,0,0,0,1617673907.39737,-12.64472484588623,-3.085763931274414,-34.66345977783203,68.09463500976562,75.12297821044922,17.06523704528809,1048109.807551125,0.0619049072265625,-0.145172119140625,-0.96240234375,1048109.786382125,-0.03038906492292881,-0.05153056979179382,-0.1568314284086227,1048109.764581125,-1.078277587890625,31.409423828125,-105.0652313232422,1048109.775175125,-1.712363870115947,0.07734060648311744,0.1276533067426697,-0.03382488340139389,-0.1348338723182678,-0.1705241352319717,-0.01218177378177643,0.0004148036241531372,-0.001564860343933105,2,-0.0709103499272114,0.02285869797630188,0.751628422481146,-0.6553655573222051,0.07663486152887344,-0.1273068934679031,-0.9888983964920044,-12.58980751037598,-3.058765411376953,-34.72524261474609,-1,2,1048107.07465925,1,2,1617673904.663829,1617673410.617,79,1.496211,0,0,51.15003,0,0,1617673906.263914,1048106.595935,0,-0.4624023,98.16087,0,0,0,0,0,1,1617673907.041595,1,0.1,1617673907.413762,-23.40646,-28.19177,0
1617673907.448583,13,0,0,0,0,0,0,0,0,0,1617673907.437208,-12.8376350402832,-3.075218200683594,-34.59026336669922,68.33791351318359,75.36625671386719,17.06496620178223,1048109.841172125,0.075347900390625,-0.13037109375,-1.01373291015625,1048109.820003125,0.0007864314829930663,0.1546449661254883,-0.09518856555223465,1048109.824563125,-1.406600952148438,31.54568481445312,-105.0551300048828,1048109.775175125,-1.712363870115947,0.07734060648311744,0.1276533067426697,-0.03382488340139389,-0.1348338723182678,-0.1705241352319717,-0.01218177378177643,0.0004148036241531372,-0.001564860343933105,2,-0.0709103499272114,0.02285869797630188,0.751628422481146,-0.6553655573222051,0.07663486152887344,-0.1273068934679031,-0.9888983964920044,-12.58980751037598,-3.058765411376953,-34.72524261474609,-1,2,1048107.07465925,1,2,1617673904.663829,1617673410.617,79,1.496211,0,0,51.15003,0,0,1617673906.263914,1048106.595935,0,-0.4624023,98.16087,0,0,0,0,0,1,1617673907.041595,1,0.1,1617673907.413762,-23.40646,-28.19177,0
1617673907.486937,14,0,0,0,0,0,0,0,0,0,1617673907.477624,-12.68383884429932,-3.21782112121582,-34.67404937744141,68.48917388916016,75.51751708984375,17.06480598449707,1048109.874795125,0.0828857421875,-0.128326416015625,-1.0079345703125,1048109.853626125,0.1686396151781082,0.1229088753461838,-0.04757843911647797,1048109.824563125,-1.406600952148438,31.54568481445312,-105.0551300048828,1048109.834947125,-1.719384226454599,0.08076938574379049,0.1236361687206856,0.06746605038642883,0.119942843914032,-0.07501450181007385,-0.0039244145154953,-0.008895978331565857,-0.02142751216888428,2,-0.07081867036373243,0.02046755931311594,0.7539499734603872,-0.6527826317866432,0.08006573468446732,-0.1233214288949966,-0.9891315698623657,-12.81629753112793,-3.054553985595703,-34.664794921875,-1,2,1048107.07465925,1,2,1617673904.663829,1617673410.617,79,1.496211,0,0,51.15003,0,0,1617673906.263914,1048106.595935,0,-0.4624023,98.16087,0,0,0,0,0,1,1617673907.041595,1,0.1,1617673907.48057,-22.6459,-24.85483,0
1617673907.518463,15,0,0,0,0,0,0,0,0,0,1617673907.517067,-12.45917987823486,-3.433446884155273,-34.87574005126953,68.64382934570312,75.67217254638672,17.06454086303711,1048109.908416125,0.0882415771484375,-0.146392822265625,-1.0218505859375,1048109.887247125,0.1190811172127724,0.04692676290869713,-0.07153676450252533,1048109.884546125,-1.080459594726562,31.27919006347656,-105.1400451660156,1048109.894719125,-1.723399355801563,0.08607851180673583,0.1320599726572889,0.06041503697633743,-0.0005053426139056683,-0.06815941631793976,-0.0006595030426979065,-0.003592699766159058,-0.02798718214035034,2,-0.07550771741707252,0.02207546570627604,0.7547466401273207,-0.6512823638174313,0.08522366732358932,-0.1316764503717422,-0.9876224994659424,-12.49880981445312,-3.408895492553711,-34.7791748046875,-1,2,1048107.07465925,1,2,1617673904.663829,1617673410.617,79,1.496211,0,0,51.15003,0,0,1617673906.263914,1048106.595935,0,-0.4624023,98.16087,0,0,0,0,0,1,1617673907.041595,1,0.1,1617673907.518426,-22.6459,-26.02913,0
1617673907.546738,16,0,0,0,0,0,0,0,0,0,1617673907.537283,-12.44480133056641,-3.522127151489258,-34.76136016845703,68.72299194335938,75.75133514404297,17.06441497802734,1048109.942037125,0.08575439453125,-0.122283935546875,-1.02032470703125,1048109.920868125,-0.06560617685317993,-0.1527711749076843,-0.07820425927639008,1048109.884546125,-1.080459594726562,31.27919006347656,-105.1400451660156,1048109.894719125,-1.723399355801563,0.08607851180673583,0.1320599726572889,0.06041503697633743,-0.0005053426139056683,-0.06815941631793976,-0.0006595030426979065,-0.003592699766159058,-0.02798718214035034,2,-0.07550771741707252,0.02207546570627604,0.7547466401273207,-0.6512823638174313,0.08522366732358932,-0.1316764503717422,-0.9876224994659424,-12.49880981445312,-3.408895492553711,-34.7791748046875,-1,2,1048107.07465925,1,2,1617673904.663829,1617673410.617,79,1.496211,0,0,51.15003,0,0,1617673906.263914,1048106.595935,0,-0.4624023,98.16087,0,0,0,0,0,1,1617673907.041595,1,0.1,1617673907.546681,-22.6459,-26.72452,0
1617673907.586255,17,0,0,0,0,0,0,0,0,0,1617673907.576814,-12.65740966796875,-3.442907333374023,-34.87665557861328,68.97952270507812,76.00786590576172,17.06430816650391,1048109.975660125,0.0646820068359375,-0.1368255615234375,-0.9625091552734375,1048109.954491125,-0.02192633785307407,-0.2033919990062714,-0.1284751445055008,1048109.944535125,-1.09259033203125,31.12818908691406,-105.1925506591797,1048109.954491125,-1.728226445503841,0.07675496854190686,0.1288663170589784,-0.03328108042478561,-0.2086986005306244,-0.1265493184328079,-0.001931905746459961,0.001785695552825928,-0.001903712749481201,2,-0.07089679431071652,0.02407147704057434,0.756778677573464,-0.6493691465355599,0.07604381442070007,-0.1285099387168884,-0.9887884259223938,-12.58443737030029,-3.492380142211914,-34.85269927978516,-1,2,1048107.07465925,1,2,1617673904.663829,1617673410.617,79,1.496211,0,0,51.15003,0,0,1617673906.263914,1048107.544994,0,-0.4359741,98.16055,0,0,0,0,0,1,1617673907.041595,1,0.1,1617673907.580543,-22.6459,-28.20619,0
1617673907.616395,18,0,0,0,0,0,0,0,0,0,1617673907.597278,-12.77624320983887,-3.508281707763672,-34.72341918945312,69.11173248291016,76.14007568359375,17.06426429748535,1048110.009281125,0.0724945068359375,-0.126220703125,-0.991241455078125,1048109.988112125,0.05534421652555466,0.0234890803694725,-0.1105129271745682,1048110.004520125,-1.50799560546875,30.94776916503906,-105.2050323486328,1048109.954491125,-1.728226445503841,0.07675496854190686,0.1288663170589784,-0.03328108042478561,-0.2086986005306244,-0.1265493184328079,-0.001931905746459961,0.001785695552825928,-0.001903712749481201,2,-0.07089679431071652,0.02407147704057434,0.756778677573464,-0.6493691465355599,0.07604381442070007,-0.1285099387168884,-0.9887884259223938,-12.58443737030029,-3.492380142211914,-34.85269927978516,-1,2,1048107.07465925,1,2,1617673904.663829,1617673410.617,79,1.496211,0,0,51.15003,0,0,1617673906.263914,1048107.544994,0,-0.4359741,98.16055,0,0,0,0,0,1,1617673907.041595,1,0.1,1617673907.613948,-22.6459,-27.99489,0
1617673907.656064,19,0,0,0,0,0,0,0,0,0,1617673907.636588,-12.89093685150146,-3.645822525024414,-34.68295288085938,69.34960174560547,76.37794494628906,17.06412124633789,1048110.042905125,0.0804290771484375,-0.1496734619140625,-0.9708099365234375,1048110.021733125,0.1981764733791351,0.04628094658255577,-0.104138121008873,1048110.004520125,-1.50799560546875,30.94776916503906,-105.2050323486328,1048110.014263125,-1.734938334901518,0.07609025215872327,0.1312177487726156,0.1682885140180588,0.02736042998731136,-0.08987690508365631,-0.0005800724029541016,0.006284043192863464,0.002862751483917236,2,-0.07131939589032327,0.02542029002710856,0.7588900724637336,-0.64680236595623,0.07536335289478302,-0.1308415234088898,-0.988534688949585,-12.91862297058105,-3.662857055664062,-34.70944976806641,-1,2,1048107.07465925,1,2,1617673904.663829,1617673410.617,79,1.496211,0,0,51.15003,0,0,1617673906.263914,1048107.544994,0,-0.4359741,98.16055,0,0,0,0,0,1,1617673907.041595,1,0.1,1617673907.647281,-22.6459,-28.52917,0
1617673907.688489,20,0,0,0,0,0,0,0,0,0,1617673907.67652,-12.68900012969971,-4.068853378295898,-34.55155944824219,69.48057556152344,76.50891876220703,17.06387901306152,1048110.076526125,0.087860107421875,-0.149017333984375,-0.9846954345703125,1048110.055357125,0.1877214312553406,0.14042928814888,-0.02049621939659119,1048110.064498125,-1.223602294921875,30.48294067382812,-105.0067291259766,1048110.014263125,-1.734938334901518,0.07609025215872327,0.1312177487726156,0.1682885140180588,0.02736042998731136,-0.08987690508365631,-0.0005800724029541016,0.006284043192863464,0.002862751483917236,2,-0.07131939589032327,0.02542029002710856,0.7588900724637336,-0.64680236595623,0.07536335289478302,-0.1308415234088898,-0.988534688949585,-12.91862297058105,-3.662857055664062,-34.70944976806641,-1,2,1048107.07465925,1,2,1617673904.663829,1617673410.617,79,1.496211,0,0,51.15003,0,0,1617673906.263914,1048107.544994,0,-0.4359741,98.16055,0,0,0,0,0,1,1617673907.041595,1,0.1,1617673907.647281,-22.6459,-28.52917,0
1617673907.715935,21,0,0,0,0,0,0,0,0,0,1617673907.696355,-12.50493812561035,-4.198772430419922,-34.66381072998047,69.50167846679688,76.53002166748047,17.06375503540039,1048110.110147125,0.08221435546875,-0.13531494140625,-0.983856201171875,1048110.088978125,0.02419881336390972,0.06309960782527924,-0.02820473909378052,1048110.064498125,-1.223602294921875,30.48294067382812,-105.0067291259766,1048110.074036125,-1.739013460414109,0.08244898877130169,0.1411236261955231,0.1006455421447754,0.1010617092251778,-0.007871088571846485,0.006079055368900299,-0.01158128678798676,0.003388464450836182,2,-0.07685899207004343,0.02729500757198176,0.7595873474264858,-0.6452711093585083,0.08153687417507172,-0.1406556516885757,-0.9866953492164612,-12.61985015869141,-4.183822631835938,-34.64230346679688,-1,2,1048107.07465925,1,2,1617673904.663829,1617673410.617,79,1.496211,0,0,51.15003,0,0,1617673906.263914,1048107.544994,0,-0.4359741,98.16055,0,0,0,0,0,1,1617673907.041595,1,0.1,1617673907.713807,-22.6459,-30.12372,0
1617673907.758568,22,0,0,0,0,0,0,0,0,0,1617673907.75598,-12.49849891662598,-4.090875625610352,-34.80686950683594,69.61721801757812,76.64556121826172,17.06340026855469,1048110.143770125,0.0863494873046875,-0.152496337890625,-0.984130859375,1048110.122601125,-0.1123102977871895,-0.042901661247015,-0.05716555193066597,1048110.124482125,-0.988922119140625,30.47067260742188,-105.14501953125,1048110.133808125,-1.741148644986463,0.08315427547151347,0.1380669288904932,-0.1090986281633377,-0.06663224101066589,-0.03833190351724625,0.005805611610412598,-0.007909625768661499,-0.003813803195953369,2,-0.07611969442779981,0.02598204836552863,0.7603709378207794,-0.6444896354045176,0.08226808160543442,-0.1376287043094635,-0.9870614409446716,-12.44457530975342,-4.090307235717773,-34.78114318847656,-1,2,1048107.07465925,1,2,1617673904.663829,1617673410.617,79,1.496211,0,0,51.15003,0,0,1617673906.263914,1048107.544994,0,-0.4359741,98.16055,0,0,0,0,0,1,1617673907.041595,1,0.1,1617673907.758522,-22.6459,-27.91696,0
1617673907.785635,23,0,0,0,0,0,0,0,0,0,1617673907.776349,-12.53557014465332,-4.157697677612305,-34.69016265869141,69.58557891845703,76.61392211914062,17.06328392028809,1048110.177391125,0.083526611328125,-0.1464996337890625,-0.9679718017578125,1048110.156222125,-0.01199727412313223,-0.01730974763631821,0.02061499655246735,1048110.124482125,-0.988922119140625,30.47067260742188,-105.14501953125,1048110.133808125,-1.741148644986463,0.08315427547151347,0.1380669288904932,-0.1090986281633377,-0.06663224101066589,-0.03833190351724625,0.005805611610412598,-0.007909625768661499,-0.003813803195953369,2,-0.07611969442779981,0.02598204836552863,0.7603709378207794,-0.6444896354045176,0.08226808160543442,-0.1376287043094635,-0.9870614409446716,-12.44457530975342,-4.090307235717773,-34.78114318847656,-1,2,1048107.07465925,1,2,1617673904.663829,1617673410.617,79,1.496211,0,0,51.15003,0,0,1617673906.263914,1048107.544994,0,-0.4359741,98.16055,0,0,0,0,0,1,1617673907.041595,1,0.1,1617673907.780668,-22.6459,-28.12141,0
1617673907.817651,24,0,0,0,0,0,0,0,0,0,1617673907.815687,-12.56854438781738,-3.983451843261719,-34.79445648193359,69.46992492675781,76.49826812744141,17.06305885314941,1048110.211012125,0.0818939208984375,-0.1330718994140625,-0.9999542236328125,1048110.189843125,0.04396852478384972,0.1189165338873863,0.05463235080242157,1048110.184468125,-1.188980102539062,30.52670288085938,-105.1553802490234,1048110.193580125,-1.73947420563264,0.08409585258787045,0.1378975064008059,0.02706027776002884,0.1226207837462425,0.05507767200469971,-0.005165986716747284,-0.004049137234687805,0.0131450891494751,2,-0.07644486113892199,0.0255499188419391,0.7598018987003347,-0.6451390570641348,0.0831993967294693,-0.1374608874320984,-0.9870067834854126,-12.60116672515869,-4.017473220825195,-34.78290557861328,-1,2,1048107.07465925,1,2,1617673904.663829,1617673410.617,79,1.496211,0,0,51.15003,0,0,1617673906.263914,1048107.544994,0,-0.4359741,98.16055,0,0,0,0,0,1,1617673907.041595,1,0.1,1617673907.817614,-22.6459,-29.01342,0
1617673907.855262,25,0,0,0,0,0,0,0,0,0,1617673907.835792,-12.52673816680908,-4.119281768798828,-34.71078491210938,69.43489837646484,76.46324157714844,17.06295013427734,1048110.244635125,0.0764007568359375,-0.1277008056640625,-1.008880615234375,1048110.223466125,0.01681466586887836,0.0504264235496521,0.0225998517125845,1048110.244449125,-0.988494873046875,30.49026489257812,-105.2684631347656,1048110.193580125,-1.73947420563264,0.08409585258787045,0.1378975064008059,0.02706027776002884,0.1226207837462425,0.05507767200469971,-0.005165986716747284,-0.004049137234687805,0.0131450891494751,2,-0.07644486113892199,0.0255499188419391,0.7598018987003347,-0.6451390570641348,0.0831993967294693,-0.1374608874320984,-0.9870067834854126,-12.60116672515869,-4.017473220825195,-34.78290557861328,-1,2,1048107.07465925,1,2,1617673904.663829,1617673410.617,79,1.496211,0,0,51.15003,0,0,1617673906.263914,1048107.544994,0,-0.4359741,98.16055,0,0,0,0,0,1,1617673907.041595,1,0.1,1617673907.847262,-22.6459,-29.16723,0
1617673907.885253,26,0,0,0,0,0,0,0,0,0,1617673907.875575,-12.45779132843018,-4.044208526611328,-34.99427032470703,69.43719482421875,76.46553802490234,17.06273460388184,1048110.278256125,0.0791168212890625,-0.135162353515625,-1.010452270507812,1048110.257087125,-0.02600470185279846,-0.05449999496340752,-0.01173628494143486,1048110.244449125,-0.988494873046875,30.49026489257812,-105.2684631347656,1048110.253352125,-1.738140335873445,0.08676463995034543,0.1386754111861322,-0.03868754208087921,-0.0463239923119545,-0.0071294573135674,-0.009026475250720978,0.005510434508323669,-0.02557837963104248,2,-0.0777244734904258,0.02493417859055626,0.7592373920112474,-0.6456746351683069,0.08582392334938049,-0.1382313668727875,-0.9866743683815002,-12.44472312927246,-4.039325714111328,-34.91945648193359,-1,2,1048107.07465925,1,2,1617673904.663829,1617673410.617,79,1.496211,0,0,51.15003,0,0,1617673906.263914,1048107.544994,0,-0.4359741,98.16055,0,0,0,0,0,1,1617673907.041595,1,0.1,1617673907.880496,-22.6459,-29.80592,0
1617673907.927923,27,0,0,0,0,0,0,0,0,0,1617673907.9155,-12.5795841217041,-3.84541130065918,-34.76338195800781,69.44931793212891,76.4776611328125,17.06252670288086,1048110.311879125,0.0727996826171875,-0.133636474609375,-0.982940673828125,1048110.290708125,0.003367833560332656,-0.05943882465362549,-0.01127156335860491,1048110.304434125,-1.160110473632812,30.79747009277344,-105.1918487548828,1048110.253352125,-1.738140335873445,0.08676463995034543,0.1386754111861322,-0.03868754208087921,-0.0463239923119545,-0.0071294573135674,-0.009026475250720978,0.005510434508323669,-0.02557837963104248,2,-0.0777244734904258,0.02493417859055626,0.7592373920112474,-0.6456746351683069,0.08582392334938049,-0.1382313668727875,-0.9866743683815002,-12.44472312927246,-4.039325714111328,-34.91945648193359,-1,2,1048107.07465925,1,2,1617673904.663829,1617673410.617,79,1.496211,0,0,51.15003,0,0,1617673906.263914,1048107.544994,0,-0.4359741,98.16055,0,0,0,0,0,1,1617673907.041595,1,0.1,1617673907.913864,-22.6459,-30.32043,0
1617673907.955384,28,0,0,0,0,0,0,0,0,0,1617673907.935306,-12.70545864105225,-3.83003044128418,-34.73900604248047,69.46368408203125,76.49202728271484,17.06242561340332,1048110.345500125,0.0787811279296875,-0.1344451904296875,-0.9774932861328125,1048110.324331125,0.0869641900062561,0.02207467518746853,-0.01274615526199341,1048110.304434125,-1.160110473632812,30.79747009277344,-105.1918487548828,1048110.313124125,-1.738429225873264,0.08290074386356545,0.1376009534731843,0.02885390445590019,0.01123499777168036,-0.007590811233967543,-0.009223490953445435,0.00353066623210907,0.004205405712127686,2,-0.07590929313565843,0.02578254303296207,0.7595220189411551,-0.645522562441323,0.08202313631772995,-0.1371671408414841,-0.9871460795402527,-12.67847156524658,-3.889802932739258,-34.76054382324219,-1,2,1048107.07465925,1,2,1617673904.663829,1617673410.617,79,1.496211,0,0,51.15003,0,0,1617673906.263914,1048107.544994,0,-0.4359741,98.16055,0,0,0,0,0,1,1617673907.041595,1,0.1,1617673907.947451,-22.6459,-30.65158,0
1617673907.988487,29,0,0,0,0,0,0,0,0,0,1617673907.975456,-12.60616493225098,-3.99787712097168,-34.68602752685547,69.54144287109375,76.56978607177734,17.06222915649414,1048110.379121125,0.08123779296875,-0.14459228515625,-0.987884521484375,1048110.357952125,0.08324988186359406,0.06125456839799881,-0.03493960946798325,1048110.364414125,-1.17449951171875,30.59942626953125,-105.1666717529297,1048110.313124125,-1.738429225873264,0.08290074386356545,0.1376009534731843,0.02885390445590019,0.01123499777168036,-0.007590811233967543,-0.009223490953445435,0.00353066623210907,0.004205405712127686,2,-0.07590929313565843,0.02578254303296207,0.7595220189411551,-0.645522562441323,0.08202313631772995,-0.1371671408414841,-0.9871460795402527,-12.67847156524658,-3.889802932739258,-34.76054382324219,-1,2,1048107.07465925,1,2,1617673904.663829,1617673410.617,79,1.496211,0,0,51.15003,0,0,1617673906.263914,1048107.544994,0,-0.4359741,98.16055,0,0,0,0,0,1,1617673907.041595,1,0.1,1617673907.947451,-22.6459,-30.65158,0
1617673908.024902,30,0,0,0,0,0,0,0,0,0,1617673908.015091,-12.51432037353516,-4.056295394897461,-34.69868469238281,69.59877014160156,76.62711334228516,17.06204223632812,1048110.412745125,0.087554931640625,-0.1575164794921875,-0.992279052734375,1048110.391575125,-0.05986306816339493,-0.05231327190995216,-0.03091743588447571,1048110.364414125,-1.17449951171875,30.59942626953125,-105.1666717529297,1048110.372896125,-1.740198632072813,0.08484812888592518,0.1414682744564303,0.004643660970032215,0.002386348322033882,-0.04271908849477768,-0.004111573100090027,0.0004634261131286621,-0.0007493495941162109,2,-0.07786472417779469,0.02669863864625611,0.7598628662284157,-0.6448508323118348,0.08389974385499954,-0.1409968733787537,-0.9864485263824463,-12.56613540649414,-4.072996139526367,-34.84953308105469,-1,2,1048107.07465925,1,2,1617673904.663829,1617673410.617,79,1.496211,0,0,51.15003,0,0,1617673906.263914,1048107.544994,0,-0.4359741,98.16055,0,0,0,0,0,1,1617673907.041595,1,0.1,1617673908.013377,-22.6459,-30.26354,0
1617673908.054583,31,0,0,0,0,0,0,0,0,0,1617673908.035126,-12.45792579650879,-4.283355712890625,-34.05129241943359,69.56980133056641,76.59814453125,17.06195068359375,1048110.446366125,0.0803375244140625,-0.1479949951171875,-0.976104736328125,1048110.425197125,-0.06672150641679764,-0.0799664705991745,0.03305675461888313,1048110.424399125,-1.002960205078125,30.27560424804688,-104.3522491455078,1048110.432669125,-1.740234945932936,0.08018844388863257,0.137151297181277,-0.07020608335733414,-0.05246330052614212,0.04880747199058533,0.0008956044912338257,-0.02268683910369873,0.01423603296279907,2,-0.0747110726405648,0.02655381896488503,0.7602243283357661,-0.644804038923745,0.07935032993555069,-0.1367217153310776,-0.9874262809753418,-12.5227222442627,-4.158405303955078,-34.17028045654297,-1,2,1048107.07465925,1,2,1617673904.663829,1617673410.617,79,1.496211,0,0,51.15003,0,0,1617673906.263914,1048107.544994,0,-0.4359741,98.16055,1617673908.050909,587422867,1685438189,0,0,1,1617673907.041595,1,0.1,1617673908.051158,-22.6459,-30.77962,0
1617673908.084544,32,0,0,0,0,0,0,0,0,0,1617673908.075069,-12.67980670928955,-3.947050094604492,-34.58915710449219,69.45414733886719,76.48249053955078,17.06177520751953,1048110.479987125,0.0730133056640625,-0.1215972900390625,-0.9769287109375,1048110.458818125,-0.02853044494986534,-0.02697009779512882,0.03678624331951141,1048110.424399125,-1.002960205078125,30.27560424804688,-104.3522491455078,1048110.432669125,-1.740234945932936,0.08018844388863257,0.137151297181277,-0.07020608335733414,-0.05246330052614212,0.04880747199058533,0.0008956044912338257,-0.02268683910369873,0.01423603296279907,2,-0.0747110726405648,0.02655381896488503,0.7602243283357661,-0.644804038923745,0.07935032993555069,-0.1367217153310776,-0.9874262809753418,-12.5227222442627,-4.158405303955078,-34.17028045654297,-1,2,1048107.07465925,1,2,1617673904.663829,1617673410.617,79,1.496211,0,0,51.15003,0,0,1617673906.263914,1048107.544994,0,-0.4359741,98.16055,1617673908.050909,587422867,1685438189,0,0,1,1617673907.041595,1,0.1,1617673908.080611,-22.6459,-29.9332,0
1617673908.124341,33,0,0,0,0,0,0,0,0,0,1617673908.115438,-12.77129936218262,-3.704353332519531,-34.80129241943359,69.42290496826172,76.45124816894531,17.06160354614258,1048110.513610125,0.0856170654296875,-0.129486083984375,-1.017349243164062,1048110.492441125,-0.03940413147211075,0.05231966450810432,0.009828129783272743,1048110.484388125,-1.248199462890625,30.80415344238281,-105.1594085693359,1048110.492441125,-1.738211926925786,0.07908312266694689,0.1354022291868061,-0.05076019465923309,0.04701270535588264,0.01175448577851057,-0.004669263958930969,0.002542570233345032,0.01745915412902832,2,-0.07375712493240627,0.02616763707306788,0.7596806081141915,-0.6455700160750583,0.07827763259410858,-0.1349888741970062,-0.9877502918243408,-12.70189094543457,-3.783172607421875,-34.77232360839844,-1,2,1048107.07465925,1,2,1617673904.663829,1617673410.617,79,1.496211,0,0,51.15003,0,0,1617673906.263914,1048107.544994,0,-0.4359741,98.16055,1617673908.050909,587422867,1685438189,0,0,1,1617673907.041595,1,0.1,1617673908.122873,-22.6459,-30.62431,0
1617673908.154167,34,0,0,0,0,0,0,0,0,0,1617673908.135011,-12.79107093811035,-3.721433639526367,-34.57709503173828,69.41001129150391,76.4383544921875,17.06152153015137,1048110.547231125,0.068572998046875,-0.1295928955078125,-0.9882354736328125,1048110.526062125,-0.0271272249519825,-0.07038015872240067,-0.007440872024744749,1048110.544373125,-1.163330078125,30.70562744140625,-104.8209991455078,1048110.492441125,-1.738211926925786,0.07908312266694689,0.1354022291868061,-0.05076019465923309,0.04701270535588264,0.01175448577851057,-0.004669263958930969,0.002542570233345032,0.01745915412902832,2,-0.07375712493240627,0.02616763707306788,0.7596806081141915,-0.6455700160750583,0.07827763259410858,-0.1349888741970062,-0.9877502918243408,-12.70189094543457,-3.783172607421875,-34.77232360839844,-1,2,1048107.07465925,1,2,1617673904.663829,1617673410.617,79,1.496211,0,0,51.15003,0,0,1617673906.263914,1048107.544994,0,-0.4359741,98.16055,1617673908.050909,587422867,1685438189,0,0,1,1617673907.041595,1,0.1,1617673908.146906,-22.6459,-30.90153,0
1617673908.194707,35,0,0,0,0,0,0,0,0,0,1617673908.174602,-12.71710205078125,-3.750783920288086,-34.76969909667969,69.44343566894531,76.47177886962891,17.06135749816895,1048110.580854125,0.0741119384765625,-0.1390533447265625,-1.00592041015625,1048110.559683125,-0.01281060371547937,-0.004938832018524408,-0.01213975343853235,1048110.544373125,-1.163330078125,30.70562744140625,-104.8209991455078,1048110.552213125,-1.738115636931981,0.07780720641924861,0.1333261688893696,-0.02752066776156425,-0.01941634528338909,-0.01921253651380539,-0.008328601717948914,0.0004852265119552612,0.001935839653015137,2,-0.0726077353867256,0.02578382112382406,0.7597756113776366,-0.6456039728359591,0.07703889906406403,-0.1329315155744553,-0.9881266355514526,-12.71581554412842,-3.786754608154297,-34.60762023925781,-1,2,1048107.07465925,1,2,1617673904.663829,1617673410.617,79,1.496211,0,0,51.15003,0,0,1617673906.263914,1048107.544994,0,-0.4359741,98.16055,1617673908.050909,587422867,1685438189,0,0,1,1617673907.041595,1,0.1,1617673908.179691,-22.6459,-30.26476,0
1617673908.227582,36,0,0,0,0,0,0,0,0,0,1617673908.214202,-12.74764633178711,-3.659652709960938,-34.63182830810547,69.44580078125,76.47414398193359,17.06119918823242,1048110.614475125,0.0670928955078125,-0.148406982421875,-0.9790191650390625,1048110.593306125,-0.008696552366018295,-0.05911977961659431,-0.002217614324763417,1048110.604350125,-1.315780639648438,30.9765625,-105.0761413574219,1048110.552213125,-1.738115636931981,0.07780720641924861,0.1333261688893696,-0.02752066776156425,-0.01941634528338909,-0.01921253651380539,-0.008328601717948914,0.0004852265119552612,0.001935839653015137,2,-0.0726077353867256,0.02578382112382406,0.7597756113776366,-0.6456039728359591,0.07703889906406403,-0.1329315155744553,-0.9881266355514526,-12.71581554412842,-3.786754608154297,-34.60762023925781,-1,2,1048107.07465925,1,2,1617673904.663829,1617673410.617,79,1.496211,0,0,51.15003,0,0,1617673906.263914,1048107.544994,0,-0.4359741,98.16055,1617673908.050909,587422867,1685438189,0,0,1,1617673907.041595,1,0.1,1617673908.213879,-22.6459,-26.09527,0
1617673908.254175,37,0,0,0,0,0,0,0,0,0,1617673908.234248,-12.79291725158691,-3.592430114746094,-34.70555114746094,69.41241455078125,76.44075775146484,17.06112480163574,1048110.648096125,0.0711669921875,-0.134521484375,-1.0013427734375,1048110.626927125,-0.06172168627381325,0.0005499427788890898,0.03811009973287582,1048110.604350125,-1.315780639648438,30.9765625,-105.0761413574219,1048110.611985125,-1.738260317840997,0.07531047090951165,0.1316217510576721,-0.04960227385163307,-0.02446534112095833,0.01418377179652452,-0.009067311882972717,-0.0149829238653183,0.009002447128295898,2,-0.07111040457837386,0.0259445726645011,0.7599760607351692,-0.6455281071255295,0.07458850741386414,-0.131242036819458,-0.9885403513908386,-12.75740337371826,-3.68693733215332,-34.68495178222656,-1,2,1048107.07465925,1,2,1617673904.663829,1617673410.617,79,1.496211,0,0,51.15003,0,0,1617673906.263914,1048107.544994,0,-0.4359741,98.16055,1617673908.050909,587422867,1685438189,0,0,1,1617673907.041595,1,0.1,1617673908.247442,-22.6459,-26.52026,0
1617673908.298641,38,0,0,0,0,0,0,0,0,0,1617673908.294144,-12.83962917327881,-3.580656051635742,-34.71776580810547,69.27006530761719,76.29840850830078,17.0609073638916,1048110.681719125,0.06488037109375,-0.1137542724609375,-0.9973907470703125,1048110.660550125,-0.02042325027287006,0.01093706954270601,0.03977644070982933,1048110.664331125,-1.4808349609375,31.08467102050781,-105.0405883789062,1048110.671757125,-1.735545944436921,0.07437384727598757,0.1289050642299991,-0.02025047689676285,0.02040709927678108,0.02526603266596794,-0.008243903517723083,0.01201701164245605,-0.008490025997161865,2,-0.06991681566524782,0.02511534251606829,0.7592324796563872,-0.646565494515372,0.073688805103302,-0.1285483688116074,-0.9889616966247559,-12.86319255828857,-3.560575485229492,-34.64874267578125,-1,2,1048107.07465925,1,2,1617673904.663829,1617673410.617,79,1.496211,0,0,51.15003,0,0,1617673906.263914,1048107.544994,0,-0.4359741,98.16055,1617673908.050909,587422867,1685438189,0,0,1,1617673907.041595,1,0.1,1617673908.298606,-22.6459,-27.23108,0
1617673908.323867,39,0,0,0,0,0,0,0,0,0,1617673908.31414,-12.77340984344482,-3.558124542236328,-34.53050994873047,69.26332855224609,76.29167175292969,17.06083679199219,1048110.715340125,0.07794189453125,-0.12005615234375,-1.031890869140625,1048110.694171125,-0.003590473672375083,0.02535861916840076,0.003506850451231003,1048110.664331125,-1.4808349609375,31.08467102050781,-105.0405883789062,1048110.671757125,-1.735545944436921,0.07437384727598757,0.1289050642299991,-0.02025047689676285,0.02040709927678108,0.02526603266596794,-0.008243903517723083,0.01201701164245605,-0.008490025997161865,2,-0.06991681566524782,0.02511534251606829,0.7592324796563872,-0.646565494515372,0.073688805103302,-0.1285483688116074,-0.9889616966247559,-12.86319255828857,-3.560575485229492,-34.64874267578125,-1,2,1048107.07465925,1,2,1617673904.663829,1617673410.617,79,1.496211,0,0,51.15003,0,0,1617673906.263914,1048107.544994,0,-0.4359741,98.16055,1617673908.050909,587422867,1685438189,0,0,1,1617673907.041595,1,0.1,1617673908.313846,-22.6459,-27.88381,0
1617673908.36025,40,0,0,0,0,0,0,0,0,0,1617673908.353768,-12.9574670791626,-3.331609725952148,-34.64101409912109,69.26444244384766,76.29278564453125,17.06072807312012,1048110.748961625,0.066741943359375,-0.120147705078125,-0.9885101318359375,1048110.727792125,0.04445108771324158,-0.05517004430294037,0.0003118561580777168,1048110.724307125,-1.412918090820312,31.14910888671875,-104.9968414306641,1048110.731529125,-1.735121988742197,0.07298413350064728,0.1298636826450631,0.03492165729403496,-0.04730066657066345,0.003449049778282642,-0.001977622509002686,0.006589427590370178,-0.01319640874862671,2,-0.06970290538334963,0.02591521480736121,0.7591089049419342,-0.6467021220831467,0.0723053440451622,-0.1294989734888077,-0.9889398217201233,-12.86476516723633,-3.448318481445312,-34.60360717773438,-1,2,1048107.07465925,1,2,1617673904.663829,1617673410.617,79,1.496211,0,0,51.15003,0,0,1617673906.263914,1048107.544994,0,-0.4359741,98.16055,1617673908.050909,587422867,1685438189,0,0,1,1617673907.041595,1,0.1,1617673908.360215,-22.6459,-24.84953,0
1617673908.393533,41,0,0,0,0,0,0,0,0,0,1617673908.373865,-12.85870552062988,-3.440042495727539,-34.50861358642578,69.28516387939453,76.31350708007812,17.06067276000977,1048110.782585625,0.0680389404296875,-0.127471923828125,-0.988983154296875,1048110.761415625,0.04621037095785141,-0.008109059184789658,-0.02527499571442604,1048110.784276625,-1.450973510742188,31.14285278320312,-104.990966796875,1048110.731529125,-1.735121988742197,0.07298413350064728,0.1298636826450631,0.03492165729403496,-0.04730066657066345,0.003449049778282642,-0.001977622509002686,0.006589427590370178,-0.01319640874862671,2,-0.06970290538334963,0.02591521480736121,0.7591089049419342,-0.6467021220831467,0.0723053440451622,-0.1294989734888077,-0.9889398217201233,-12.86476516723633,-3.448318481445312,-34.60360717773438,-1,2,1048107.07465925,1,2,1617673904.663829,1617673410.617,79,1.496211,0,0,51.15003,0,0,1617673906.263914,1048107.544994,0,-0.4359741,98.16055,1617673908.050909,587422867,1685438189,0,0,1,1617673907.041595,1,0.1,1617673908.379886,-22.6459,-24.86725,0
1617673908.42323,42,0,0,0,0,0,0,0,0,0,1617673908.413714,-12.89604187011719,-3.492076873779297,-34.66030883789062,69.35765075683594,76.38599395751953,17.06057739257812,1048110.816206625,0.07537841796875,-0.13824462890625,-1.0045166015625,1048110.795037625,0.008310394361615181,0.01597177609801292,-0.02925828658044338,1048110.784276625,-1.450973510742188,31.14285278320312,-104.990966796875,1048110.791302625,-1.736442443714562,0.07213395163749661,0.1306472951279034,0.0003492962568998337,0.01389559730887413,-0.0328260250389576,-0.003601402044296265,-0.003543630242347717,0.005256831645965576,2,-0.06961468000561088,0.02653470842277634,0.7595367024418639,-0.6461839566115087,0.07145719975233078,-0.1302759498357773,-0.9888994097709656,-12.85559558868408,-3.475173950195312,-34.68041229248047,-1,2,1048107.07465925,1,2,1617673904.663829,1617673410.617,79,1.496211,0,0,51.15003,0,0,1617673906.263914,1048107.544994,0,-0.4359741,98.16055,1617673908.050909,587422867,1685438189,0,0,1,1617673907.041595,1,0.1,1617673908.419477,-21.87703,-24.90984,0
1617673908.469839,43,0,0,0,0,0,0,0,0,0,1617673908.453309,-12.92543411254883,-3.502220153808594,-34.43860626220703,69.36281585693359,76.39115905761719,17.06047821044922,1048110.849829625,0.06640625,-0.13311767578125,-0.97601318359375,1048110.828658625,0.006513559259474277,-0.04033463820815086,-0.002902046544477344,1048110.844250625,-1.512664794921875,31.11019897460938,-104.8987274169922,1048110.791302625,-1.736442443714562,0.07213395163749661,0.1306472951279034,0.0003492962568998337,0.01389559730887413,-0.0328260250389576,-0.003601402044296265,-0.003543630242347717,0.005256831645965576,2,-0.06961468000561088,0.02653470842277634,0.7595367024418639,-0.6461839566115087,0.07145719975233078,-0.1302759498357773,-0.9888994097709656,-12.85559558868408,-3.475173950195312,-34.68041229248047,-1,2,1048107.07465925,1,2,1617673904.663829,1617673410.617,79,1.496211,0,0,51.15003,0,0,1617673906.263914,1048107.544994,0,-0.4359741,98.16055,1617673908.050909,587422867,1685438189,0,0,1,1617673907.041595,1,0.1,1617673908.447358,-21.78254,-25.55929,0
1617673908.492934,44,0,0,0,0,0,0,0,0,0,1617673908.473462,-12.94562911987305,-3.410242080688477,-34.64265441894531,69.34560394287109,76.37394714355469,17.0604190826416,1048110.883450625,0.0729217529296875,-0.1243133544921875,-0.9983673095703125,1048110.862281625,-0.005336442030966282,0.020075973123312,0.01266492903232574,1048110.844250625,-1.512664794921875,31.11019897460938,-104.8987274169922,1048110.851074625,-1.736818931307911,0.07076882977202016,0.1295988237257227,-0.01493478659540415,0.01420789677649736,0.01152369659394026,-0.003710567951202393,-0.003881335258483887,0.01311856508255005,2,-0.06875432200458095,0.02658892914119381,0.7597436300732442,-0.6460306742273862,0.07011678814888,-0.1292363405227661,-0.9891317486763,-12.97681903839111,-3.452169418334961,-34.54746246337891,-1,2,1048107.07465925,1,2,1617673904.663829,1617673410.617,79,1.496211,0,0,51.15003,0,0,1617673906.263914,1048107.544994,0,-0.4359741,98.16055,1617673908.050909,587422867,1685438189,0,0,1,1617673907.041595,1,0.1,1617673908.48144,-21.78254,-26.13366,0
1617673908.527233,45,0,0,0,0,0,0,0,0,0,1617673908.513172,-12.9409122467041,-3.407873153686523,-34.35269165039062,69.33346557617188,76.36180877685547,17.06030654907227,1048110.917071625,0.0690460205078125,-0.1243743896484375,-0.975433349609375,1048110.895902625,0.01463699992746115,0.001938248635269701,-0.001715075690299273,1048110.904225625,-1.530715942382812,31.22502136230469,-104.7699127197266,1048110.851074625,-1.736818931307911,0.07076882977202016,0.1295988237257227,-0.01493478659540415,0.01420789677649736,0.01152369659394026,-0.003710567951202393,-0.003881335258483887,0.01311856508255005,2,-0.06875432200458095,0.02658892914119381,0.7597436300732442,-0.6460306742273862,0.07011678814888,-0.1292363405227661,-0.9891317486763,-12.97681903839111,-3.452169418334961,-34.54746246337891,-1,2,1048107.07465925,1,2,1617673904.663829,1617673410.617,79,1.496211,0,0,51.15003,0,0,1617673906.263914,1048107.544994,0,-0.4359741,98.16055,1617673908.050909,587422867,1685438189,0,0,1,1617673907.041595,1,0.1,1617673908.513882,-21.78254,-26.31897,0
1617673908.562892,46,0,0,0,0,0,0,0,0,0,1617673908.552956,-12.94643688201904,-3.398767471313477,-34.47610473632812,69.32991790771484,76.35826110839844,17.0601978302002,1048110.950694625,0.0752410888671875,-0.11968994140625,-1.005096435546875,1048110.929525625,-0.006559365894645452,0.04052159190177917,-0.0001976065541384742,1048110.904225625,-1.530715942382812,31.22502136230469,-104.7699127197266,1048110.910846625,-1.736383325982262,0.07079161150574892,0.1297564345689483,-0.01079441420733929,0.03750158101320267,-0.003589848754927516,-0.002602517604827881,0.004774093627929688,0.01741486787796021,2,-0.06881941690340931,0.02662669795478888,0.7595964137573359,-0.6461951003473916,0.0701378807425499,-0.1293926239013672,-0.9891098141670227,-12.9817590713501,-3.43585205078125,-34.44302368164062,-1,2,1048107.07465925,1,2,1617673904.663829,1617673410.617,79,1.496211,0,0,51.15003,0,0,1617673906.263914,1048108.494025,0,-0.4201355,98.16036,1617673908.050909,587422867,1685438189,0,0,1,1617673907.041595,1,0.1,1617673908.547416,-21.78254,-26.73956,0
1617673908.599708,47,0,0,0,0,0,0,0,0,0,1617673908.592991,-12.90524101257324,-3.32733154296875,-34.54567718505859,69.30561828613281,76.33396148681641,17.06009292602539,1048110.984315625,0.0681304931640625,-0.1214447021484375,-0.987518310546875,1048110.963146625,0.02816292829811573,0.02329040877521038,0.01468307245522738,1048110.964203625,-1.401626586914062,31.26010131835938,-104.8784484863281,1048110.970618625,-1.736038916602079,0.07165211363469773,0.1297829700472661,0.01889156922698021,0.03394781053066254,0.01499257143586874,-0.002919316291809082,0.003961175680160522,0.005860865116119385,2,-0.06915929123784538,0.02634687503248966,0.7594544839611542,-0.6463371339825577,0.0709887370467186,-0.1294189393520355,-0.9890456795692444,-12.86256408691406,-3.316038131713867,-34.51866149902344,-1,2,1048107.07465925,1,2,1617673904.663829,1617673410.617,79,1.496211,0,0,51.15003,0,0,1617673906.263914,1048108.494025,0,-0.4201355,98.16036,1617673908.050909,587422867,1685438189,0,0,1,1617673907.041595,1,0.1,1617673908.589399,-21.78254,-27.6623,0
1617673908.622713,48,0,0,0,0,0,0,0,0,0,1617673908.613424,-12.94307994842529,-3.360862731933594,-34.49362182617188,69.30052947998047,76.32887268066406,17.06004333496094,1048111.017936625,0.073577880859375,-0.12774658203125,-0.99517822265625,1048110.996767625,0.04296637699007988,0.06134591624140739,0.004574245307594538,1048110.964203625,-1.401626586914062,31.26010131835938,-104.8784484863281,1048110.970618625,-1.736038916602079,0.07165211363469773,0.1297829700472661,0.01889156922698021,0.03394781053066254,0.01499257143586874,-0.002919316291809082,0.003961175680160522,0.005860865116119385,2,-0.06915929123784538,0.02634687503248966,0.7594544839611542,-0.6463371339825577,0.0709887370467186,-0.1294189393520355,-0.9890456795692444,-12.86256408691406,-3.316038131713867,-34.51866149902344,-1,2,1048107.07465925,1,2,1617673904.663829,1617673410.617,79,1.496211,0,0,51.15003,0,0,1617673906.263914,1048108.494025,0,-0.4201355,98.16036,1617673908.050909,587422867,1685438189,0,0,1,1617673907.041595,1,0.1,1617673908.613652,-21.78254,-28.05859,0
1617673908.662152,49,0,0,0,0,0,0,0,0,0,1617673908.652918,-12.79017353057861,-3.492391586303711,-34.42945098876953,69.28691101074219,76.31525421142578,17.0599479675293,1048111.051559625,0.0754547119140625,-0.1391448974609375,-0.9811859130859375,1048111.030390625,0.05846836790442467,0.03013739548623562,0.00902598537504673,1048111.024184625,-1.383819580078125,31.15214538574219,-104.8054656982422,1048111.030390625,-1.735745618785314,0.07407910023295151,0.1315955858800321,0.04711335897445679,0.02483072318136692,0.01095191575586796,0.0002369210124015808,-0.001260712742805481,0.003619015216827393,2,-0.07066713994667759,0.02624319010908696,0.7592084361999534,-0.6464673433047798,0.07337144762277603,-0.1312160938978195,-0.9886348843574524,-12.83839511871338,-3.458251953125,-34.38199615478516,-1,2,1048107.07465925,1,2,1617673904.663829,1617673410.617,79,1.496211,0,0,51.15003,0,0,1617673906.263914,1048108.494025,0,-0.4201355,98.16036,1617673908.050909,587422867,1685438189,0,0,1,1617673907.041595,1,0.1,1617673908.658994,-21.78254,-28.87395,0
1617673908.69228,50,0,0,0,0,0,0,0,0,0,1617673908.672868,-12.7525463104248,-3.589122772216797,-34.29916381835938,69.25714874267578,76.28549194335938,17.05990219116211,1048111.085180625,0.0731201171875,-0.134033203125,-0.997650146484375,1048111.064011625,-0.05083415284752846,-0.005088767968118191,0.02098198048770428,1048111.084165625,-1.357864379882812,30.96507263183594,-104.8077087402344,1048111.030390625,-1.735745618785314,0.07407910023295151,0.1315955858800321,0.04711335897445679,0.02483072318136692,0.01095191575586796,0.0002369210124015808,-0.001260712742805481,0.003619015216827393,2,-0.07066713994667759,0.02624319010908696,0.7592084361999534,-0.6464673433047798,0.07337144762277603,-0.1312160938978195,-0.9886348843574524,-12.83839511871338,-3.458251953125,-34.38199615478516,-1,2,1048107.07465925,1,2,1617673904.663829,1617673410.617,79,1.496211,0,0,51.15003,0,0,1617673906.263914,1048108.494025,0,-0.4201355,98.16036,1617673908.050909,587422867,1685438189,0,0,1,1617673907.041595,1,0.1,1617673908.680739,-21.78254,-29.10107,0
1617673908.732148,51,0,0,0,0,0,0,0,0,0,1617673908.712585,-12.77694702148438,-3.595661163330078,-34.4522705078125,69.20265960693359,76.23100280761719,17.059814453125,1048111.118803625,0.0647735595703125,-0.125457763671875,-0.9954833984375,1048111.097632625,-0.09791857004165649,-0.06508952379226685,0.005460012704133987,1048111.084165625,-1.357864379882812,30.96507263183594,-104.8077087402344,1048111.090162625,-1.734333721014793,0.07340801976516831,0.1287193908735967,-0.1103068888187408,-0.07031508535146713,0.0179534200578928,-0.0007291585206985474,-0.004463523626327515,-0.006320357322692871,2,-0.06950583008486726,0.02531467851252343,0.7588808860868159,-0.6470146606976304,0.07273535430431366,-0.128364235162735,-0.9890562295913696,-12.81317138671875,-3.594425201416016,-34.39481353759766,-1,2,1048107.07465925,1,2,1617673904.663829,1617673410.617,79,1.496211,0,0,51.15003,0,0,1617673906.263914,1048108.494025,0,-0.4201355,98.16036,1617673908.050909,587422867,1685438189,0,0,1,1617673907.041595,1,0.1,1617673908.718508,-21.78254,-28.56068,0
1617673908.769207,52,0,0,0,0,0,0,0,0,0,1617673908.752157,-13.03333377838135,-3.250560760498047,-34.32601165771484,69.17972564697266,76.20806884765625,17.05973243713379,1048111.152424625,0.0663909912109375,-0.131317138671875,-1.003128051757812,1048111.131255625,-0.02860687673091888,-0.04598959535360336,0.00512818293645978,1048111.144147625,-1.638717651367188,31.40103149414062,-104.7711944580078,1048111.090162625,-1.734333721014793,0.07340801976516831,0.1287193908735967,-0.1103068888187408,-0.07031508535146713,0.0179534200578928,-0.0007291585206985474,-0.004463523626327515,-0.006320357322692871,2,-0.06950583008486726,0.02531467851252343,0.7588808860868159,-0.6470146606976304,0.07273535430431366,-0.128364235162735,-0.9890562295913696,-12.81317138671875,-3.594425201416016,-34.39481353759766,-1,2,1048107.07465925,1,2,1617673904.663829,1617673410.617,79,1.496211,0,0,51.15003,0,0,1617673906.263914,1048108.494025,0,-0.4201355,98.16036,1617673908.050909,587422867,1685438189,0,0,1,1617673907.041595,1,0.1,1617673908.747358,-21.78254,-29.07318,0
1617673908.791912,53,0,0,0,0,0,0,0,0,0,1617673908.772149,-12.98530769348145,-3.213321685791016,-34.53318023681641,69.16420745849609,76.19255065917969,17.0596923828125,1048111.186046625,0.067596435546875,-0.122314453125,-1.022048950195312,1048111.164876625,0.07529661804437637,0.06575477868318558,0.01990659721195698,1048111.144147625,-1.638717651367188,31.40103149414062,-104.7711944580078,1048111.149934625,-1.733624484139195,0.07073459111906882,0.125459957265267,0.04065359756350517,-0.01163015514612198,0.01509776525199413,-0.002111732959747314,-0.005117937922477722,-0.01847368478775024,2,-0.06745136948961362,0.02491387418687459,0.7588596954541165,-0.6472723935130874,0.07012012600898743,-0.1251310855150223,-0.9896592497825623,-12.99322891235352,-3.257915496826172,-34.45054626464844,-1,2,1048107.07465925,1,2,1617673904.663829,1617673410.617,79,1.496211,0,0,51.15003,0,0,1617673906.263914,1048108.494025,0,-0.4201355,98.16036,1617673908.050909,587422867,1685438189,0,0,1,1617673907.041595,1,0.1,1617673908.782129,-21.78254,-27.68372,0
1617673908.838401,54,0,0,0,0,0,0,0,0,0,1617673908.831888,-12.85949802398682,-3.244621276855469,-34.58476257324219,69.21553802490234,76.24388122558594,17.05962562561035,1048111.219669625,0.0635833740234375,-0.1317901611328125,-1.007492065429688,1048111.198500625,0.03848587349057198,-0.04140230268239975,-0.02910675294697285,1048111.204126625,-1.38677978515625,31.30876159667969,-104.9330749511719,1048111.209707625,-1.733764662042361,0.07140303912780319,0.1282107592372896,0.01255592610687017,-0.07620110362768173,-0.0343933030962944,-0.002183869481086731,0.005896314978599548,-0.0353931188583374,2,-0.06858870530742178,0.02575001366979732,0.7587843565543735,-0.6472084404991059,0.07075682282447815,-0.1278597861528397,-0.9892650246620178,-12.82415390014648,-3.26368522644043,-34.52696228027344,-1,2,1048107.07465925,1,2,1617673904.663829,1617673410.617,79,1.5835,0,0,51.15003,0,0,1617673908.814491,1048108.494025,0,-0.4201355,98.16036,1617673908.050909,587422867,1685438189,0,0,1,1617673907.041595,1,0.1,1617673908.81386,-21.78254,-28.65431,0
1617673908.861892,55,0,0,0,0,0,0,0,0,0,1617673908.851989,-12.82153034210205,-3.302459716796875,-34.41728210449219,69.23621368408203,76.26455688476562,17.05962753295898,1048111.253290625,0.06292724609375,-0.1369171142578125,-0.9778289794921875,1048111.232121625,0.01309875771403313,-0.05825931206345558,-0.02512665838003159,1048111.204126625,-1.38677978515625,31.30876159667969,-104.9330749511719,1048111.209707625,-1.733764662042361,0.07140303912780319,0.1282107592372896,0.01255592610687017,-0.07620110362768173,-0.0343933030962944,-0.002183869481086731,0.005896314978599548,-0.0353931188583374,2,-0.06858870530742178,0.02575001366979732,0.7587843565543735,-0.6472084404991059,0.07075682282447815,-0.1278597861528397,-0.9892650246620178,-12.82415390014648,-3.26368522644043,-34.52696228027344,-1,2,1048107.07465925,1,2,1617673904.663829,1617673410.617,79,1.5835,0,0,51.15003,0,0,1617673908.814491,1048108.494025,0,-0.4201355,98.16036,1617673908.050909,587422867,1685438189,0,0,1,1617673907.041595,1,0.1,1617673908.847408,-21.78254,-28.94414,0
1617673908.902671,56,0,0,0,0,0,0,0,0,0,1617673908.891789,-12.85091781616211,-3.399383544921875,-34.58836364746094,69.22779083251953,76.25613403320312,17.05959892272949,1048111.286911625,0.068695068359375,-0.1183929443359375,-0.9846343994140625,1048111.265742625,0.03285248950123787,0.007126086391508579,0.007066697813570499,1048111.264109625,-1.495513916015625,31.30335998535156,-104.9075012207031,1048111.269479625,-1.734555880291104,0.06886631624166802,0.1285198619684523,0.03148361295461655,-0.001702472800388932,0.007166661787778139,0.0001912415027618408,0.002845928072929382,0.003577351570129395,2,-0.06771517462827412,0.02671540170655859,0.7591157231011276,-0.6468726559178847,0.06824438273906708,-0.1281663477420807,-0.9894018769264221,-12.8884744644165,-3.377925872802734,-34.52597045898438,-1,2,1048107.07465925,1,2,1617673904.663829,1617673410.617,79,1.5835,0,0,51.15003,0,0,1617673908.814491,1048108.494025,0,-0.4201355,98.16036,1617673908.050909,587422867,1685438189,0,0,1,1617673907.041595,1,0.1,1617673908.889422,-21.78254,-25.64605,0
